Name,Category ID,Category Name,Latitude,Longitude,Popularity,Price,Rating
Ravintola Paulette,13148,French Restaurant,60.158526,24.945557,0.9815886460623305,Affordable,9.1
Kaffa Roastery,13034,Café,60.158463,24.934133,0.992038988749515,Affordable,9.0
Daddy Greens Pizzabar - Iso Roobertinkatu,13064,Pizzeria,60.16284,24.940647,0.9811279581016424,Most Affordable,8.8
Ravintola Skiffer,13064,Pizzeria,60.152901,24.946306,0.9677014019431268,Affordable,8.7
Ravintola Pastis,13148,French Restaurant,60.164127,24.947772,0.9820493340230183,Affordable,8.6
Restaurant Elm,13065,Restaurant,60.156974,24.952636,0.9895173283331179,Not Listed,8.6
Café Succès,13034,Café,60.159946,24.946425,0.990996379154274,Most Affordable,8.5
BasBas Kulma,13065,Restaurant,60.158246,24.934388,0.9713646062330271,Not Listed,8.4
Kanniston Leipomo myymälä,13002,Bakery,60.159244,24.936898,0.9845144187249449,Most Affordable,8.4
Mattolaituri,13025,Wine Bar,60.153817,24.95591,0.9713241950084056,Most Expensive,8.2
Boneless Ullanlinna,13055,Fried Chicken Joint,60.159167,24.94489,0.9737973619552568,Most Affordable,8.2
Pontus,13027,Bistro,60.159031,24.946071,0.9778708133971292,Not Listed,8.2
Ravintola Maxill,13148,French Restaurant,60.160412,24.94631,0.9716636492952282,Affordable,8.1
Punavuoren Ahven,13006,Beer Bar,60.160976,24.937724,0.9957568214147161,Affordable,8.1
Ravintola,13034,Café,60.15308,24.952519,0.983011121169016,Affordable,8.0
Restaurant Manna,13289,Korean Restaurant,60.160486,24.939111,0.9480069184016552,Affordable,8.0
Forza,13064,Pizzeria,60.158477,24.933881,0.9847892150523729,Most Affordable,8.0
Ravintola NJK,13065,Restaurant,60.161257,24.964016,0.9458408767619295,Not Listed,8.0
Cafe Compass,13034,Café,60.155124,24.951613,0.980198499935342,Most Affordable,7.9
Sea Horse,13336,Scandinavian Restaurant,60.158641,24.946546,0.980707681365576,Affordable,7.8
Kahvila-Suomi (Kamome),13034,Café,60.159571,24.938757,0.9727870813397128,Affordable,7.6
Ravintola Primula,13064,Pizzeria,60.160484,24.941596,0.9822998836156731,Most Affordable,7.6
Ravintola Monal,13072,Asian Restaurant,60.163079,24.941937,0.9651736066209752,Not Listed,7.5
Goldfish,13009,Cocktail Bar,60.162534,24.946662,0.9789457519720678,Expensive,7.5
Café Ursula,13034,Café,60.155223,24.960745,0.9961770981507824,Expensive,7.3
Café Carusel,13034,Café,60.153769,24.942543,0.996977240398293,Affordable,7.1
Ravintola Saari,13336,Scandinavian Restaurant,60.152076,24.942346,0.936530130609078,Expensive,6.9
Old Skipper's,10032,Night Club,60.160484,24.941596,0.973183111341006,Expensive,6.9
Kaivohuone,13003,Bar,60.157545,24.95589,0.9795438380964697,Expensive,6.5
Karaoke Nightclub Club Swengi,13015,Karaoke Bar,60.16347,24.943154,0.9862763481184532,Affordable,5.5
Merimies Pub,13010,Dive Bar,60.160586,24.938199,0.9534462692357428,Most Affordable,5.0
HSL 1177 Eira,19042,Bus Station,60.155865,24.942475,0.9887010215957583,Not Listed,0.0
Ravintola HSS Paviljong,13065,Restaurant,60.151297,24.948369,0.956566015776542,Not Listed,0.0
Colas Pizzeria,13064,Pizzeria,60.157401,24.941848,0.35875468770205615,Most Affordable,0.0
Kaivopuiston Hammaslääkäriasema Oy,15007,Dentist,60.160546,24.955174,0.9504396741238846,Not Listed,0.0
Kasarmin Kilta ry,11130,Office Building,60.161767,24.947822,0.980796586059744,Not Listed,0.0
Viiskulma,13006,Beer Bar,60.160689,24.942361,0.9846679813785076,Not Listed,0.0
Momo Punavuori,13137,Dumpling Restaurant,60.160032,24.939921,0.5833279451700505,Most Affordable,0.0
Momo House,13137,Dumpling Restaurant,60.159907,24.939928,0.9683903401008664,Most Affordable,0.0
Eppu’s Cheesesteaks,13334,Sandwich Spot,60.160529,24.940638,0.9781375274796328,Most Affordable,0.0
Via Tribunali,13064,Pizzeria,60.159192,24.93775,0.9714858399068924,Most Affordable,0.0
Georgian Kitchen,13098,Caucasian Restaurant,60.16043,24.939065,0.9738539376697272,Not Listed,0.0
Fredan Murkina,10000,Arts and Entertainment,60.161528,24.940663,0.3105117677486098,Most Affordable,0.0
Paviljonki,13065,Restaurant,60.164079,24.949523,0.4095111858269753,Not Listed,0.0
Fly AF Bar,13011,Gay Bar,60.16313785174027,24.94185626506805,0.960857687831372,Affordable,0.0
Nisu-Aitta Oy,13065,Restaurant,60.157503,24.956055,0.0,Not Listed,0.0
Oy Despilio Ltd,13065,Restaurant,60.159562,24.947005,0.0,Not Listed,0.0
Rikhardinkadun kirjasto,12080,Library,60.166242,24.946327,0.9814512478986164,Not Listed,9.2
Johan & Nyström OY,13034,Café,60.168948,24.960192,0.9867370360791412,Expensive,9.1
Pompier ESPA,13148,French Restaurant,60.166947,24.949194,0.9934048881417303,Expensive,9.0
Majakkalaiva Relandersgrund,13003,Bar,60.169397,24.958969,0.9775717703349284,Not Listed,8.8
Ravintola Olo,13311,Molecular Gastronomy Restaurant,60.168252,24.954943,0.9911176128281391,Expensive,8.7
Allas Sea Pool,13065,Restaurant,60.167131,24.958001,0.9989897193844562,Not Listed,8.6
Salutorget,13336,Scandinavian Restaurant,60.168006,24.951856,0.9924915944652788,Expensive,8.6
Pizzeria Via Tribunali,13064,Pizzeria,60.168472,24.951741,0.9889030777188672,Affordable,8.5
El Fant,13025,Wine Bar,60.16875,24.953661,0.9773050562524248,Most Affordable,8.5
Gaijin,13263,Japanese Restaurant,60.165979,24.942132,0.9872947109789217,Expensive,8.4
Robert's Coffee Jugend,13034,Café,60.168094,24.950734,0.9927825552825553,Most Affordable,8.4
Shelter,13139,Eastern European Restaurant,60.169033,24.959863,0.9689722617354196,Not Listed,8.4
Ravintola Sipuli,13065,Restaurant,60.169001,24.961031,0.9710898099055992,Not Listed,8.3
Ravintola Kappeli,13034,Café,60.167332,24.950306,0.9982623173412648,Affordable,8.2
Fazer Café,10000,Arts and Entertainment,60.168645,24.947804,0.9979147808095176,Expensive,8.1
Krog Roba,13336,Scandinavian Restaurant,60.164579,24.947447,0.971194879089616,Affordable,8.1
Bier-Bier,13006,Beer Bar,60.165645,24.944344,0.9941080434501488,Not Listed,8.1
Black Door,13006,Beer Bar,60.164177,24.943535,0.995546683046683,Affordable,8.0
Lilla E,13009,Cocktail Bar,60.164345,24.947055,0.9810633001422476,Expensive,8.0
Pub Ludvig,13018,Pub,60.165988,24.94562,0.9925158412000518,Most Affordable,7.9
Istanbul Grilli,13356,Turkish Restaurant,60.163061,24.939137,0.9857752489331436,Affordable,7.8
Strindberg,13027,Bistro,60.167909,24.946105,0.989889111599638,Expensive,7.7
Bardot,13027,Bistro,60.168216,24.94765,0.9817260442260444,Not Listed,7.7
Ristorante Vaelsa,13025,Wine Bar,60.168402,24.953971,0.984304280356912,Affordable,7.7
Alexanderplats,13152,Brasserie,60.166511,24.944757,0.9749935342040604,Not Listed,7.6
Ravintola Savotta,13336,Scandinavian Restaurant,60.168892,24.952584,0.9941807836544678,Affordable,7.5
Holiday Bar,13003,Bar,60.168948,24.960192,0.9515146126988232,Affordable,7.4
Bryggeri Helsinki,13006,Beer Bar,60.168104,24.951737,0.9885151299624984,Expensive,7.4
Ravintola Bronda,13139,Eastern European Restaurant,60.16687,24.94545,0.9801661709556446,Expensive,7.4
Block by Dylan,13030,Buffet,60.166818,24.952172,0.9833263287210657,Not Listed,7.3
The Cock,13003,Bar,60.165521,24.949913,0.9903659640501746,Expensive,7.3
Sky Wheel Helsinki,10001,Amusement Park,60.166793,24.959315,0.9935584507952928,Not Listed,7.3
Dragon Phoenix,13102,Cantonese Restaurant,60.165874,24.952192,0.9531553084184664,Most Affordable,7.3
Version,13068,American Restaurant,60.164962,24.951044,0.9898082891503944,Affordable,7.1
The Riff,13003,Bar,60.164177,24.943535,0.9904144575197207,Affordable,7.1
Wallis,13015,Karaoke Bar,60.16901,24.960342,0.972027350316824,Affordable,6.9
Pjazza,10040,Jazz and Blues Venue,60.16564,24.941754,0.981006724427777,Affordable,6.8
Café Engel,13034,Café,60.168924,24.951416,0.9939383163067372,Affordable,6.8
Sköne,13016,Lounge,60.168997,24.960133,0.9607526186473556,Affordable,6.4
Levant,13309,Middle Eastern Restaurant,60.164244,24.93623,0.992386525281262,Affordable,9.0
Ravintola Pompier,13065,Restaurant,60.164831,24.933033,0.9862036079141342,Affordable,8.9
Birgitta Hernesaari,13034,Café,60.153736,24.931977,0.9942050303892409,Affordable,8.8
Olutravintola Pikkulintu,13006,Beer Bar,60.165956,24.936742,0.9952314754946335,Not Listed,8.5
The Wintergarden Bar,13013,Hotel Bar,60.1669,24.940899,0.989153627311522,Expensive,8.4
Taqueria El Rey,13303,Mexican Restaurant,60.166308,24.937329,0.9844093495409284,Most Affordable,8.4
Lie Mi - Bulevardi,13379,Vietnamese Restaurant,60.163764,24.934444,0.9957406569248676,Affordable,8.0
Boothill,13010,Dive Bar,60.164733,24.933151,0.9926694038536142,Affordable,7.8
Room Bulevard,13011,Gay Bar,60.163896,24.936541,0.9757532652269494,Affordable,7.7
Boon Nam - Restaurant,13072,Asian Restaurant,60.1669,24.940899,0.9869067632225527,Affordable,7.7
Naughty BRGR,13031,Burger Joint,60.165784,24.936501,0.9913924091555669,Affordable,7.6
Pamela,13360,Doner Restaurant,60.165229,24.940223,0.9845063364800208,Not Listed,7.6
Bacco,13064,Pizzeria,60.164936,24.93471,0.9708311780680202,Affordable,7.3
K-Market Lönkan Herkku,13039,Deli,60.164392,24.933567,0.9939706452864348,Not Listed,7.3
Café Ekberg,13034,Café,60.164759,24.937748,0.99589421957843,Expensive,7.2
Salve,13336,Scandinavian Restaurant,60.16103,24.93021,0.9903740462950991,Affordable,7.2
Haru,13276,Sushi Restaurant,60.164995,24.935654,0.9883615673089358,Affordable,7.1
Ravintola Bröd,13336,Scandinavian Restaurant,60.163889,24.936436,0.9840133195396352,Affordable,7.0
Tapahtumatalo Bank,13027,Bistro,60.166004,24.950906,0.9840456485193328,Not Listed,5.8
Apéro,13010,Dive Bar,60.164197,24.929628,0.9855246993404888,Affordable,9.4
Gran Delicato,13034,Café,60.165208,24.932348,0.9918692616061036,Affordable,9.0
Kaffecentralen,13034,Café,60.167698,24.932702,0.9952557222294064,Affordable,8.9
La Torrefazione,13034,Café,60.168764,24.943823,0.9890808871072028,Affordable,8.8
Thai Vegan Kitchen,13377,Vegan and Vegetarian Restaurant,60.166772,24.929654,0.9922814560972456,Affordable,8.7
St. George Bakery,13002,Bakery,60.167066,24.941035,0.990075003232898,Most Affordable,8.7
Ravintola Story,13065,Restaurant,60.166226,24.95278,0.9948273632484159,Not Listed,8.4
The Plaza - Wine & Craft Beer,13025,Wine Bar,60.1691,24.934947,0.9981976593818701,Affordable,7.9
Pub Peräkammari,13006,Beer Bar,60.167731,24.937404,0.9889919824130352,Not Listed,7.9
Ateljee Bar,13013,Hotel Bar,60.167947,24.939173,0.9915217250743569,Expensive,7.8
SalamaNation,13006,Beer Bar,60.167384,24.935229,0.996468058968059,Not Listed,7.8
Street Pride,13011,Gay Bar,60.16655028686842,24.930920898914337,0.9891617095564464,Affordable,7.8
Ravintola Merimakasiini,13338,Seafood Restaurant,60.160806,24.926646,0.9822190611664297,Expensive,7.7
Ravintola Kannas,13065,Restaurant,60.163728,24.924669,0.994528320186215,Affordable,7.6
Cafe Aalto,10000,Arts and Entertainment,60.167966,24.943665,0.9973409414198888,Most Affordable,7.6
Friends & Brgrs,13031,Burger Joint,60.169558,24.944774,0.990349799560326,Affordable,7.6
Burger King,13145,Fast Food Restaurant,60.169211,24.946777,0.9885312944523472,Most Affordable,7.5
Leijuva Lahna,13006,Beer Bar,60.166817,24.934565,0.988272662614768,Expensive,7.5
Halikarnas,13030,Buffet,60.164972,24.926088,0.990632678132678,Affordable,7.4
Bastard Burgers,13031,Burger Joint,60.169272,24.945236,0.9963144963144964,Most Affordable,7.4
Eerikin Pippuri,13145,Fast Food Restaurant,60.166621,24.933111,0.9941969481443166,Affordable,7.3
One Pint Pub,13006,Beer Bar,60.162716,24.920258,0.9980440967283071,Affordable,8.7
Pueblo Bar y Taqueria,13303,Mexican Restaurant,60.165336,24.92937,0.98208974524764,Affordable,8.6
Ruoholahden kanava,13065,Restaurant,60.161499,24.916774,0.9954820250872882,Not Listed,8.0
Putte's Bar & Pizza,13003,Bar,60.167468,24.939078,0.9910691193585933,Affordable,8.0
Ravintola Lasipalatsi,13032,"Cafe, Coffee, and Tea House",60.170032,24.936409,0.9894688348635716,Not Listed,7.7
Farang,13072,Asian Restaurant,60.170905,24.93275,0.9812491917755076,Affordable,7.6
Ravintola Mount Everest-Kamppi,13194,Himalayan Restaurant,60.167119,24.927652,0.9830434501487131,Most Affordable,7.4
WineCellars,13025,Wine Bar,60.167451,24.93797,0.967388141730247,Affordable,7.4
Teerenpeli Helsinki,13006,Beer Bar,60.170215,24.933477,0.9956275054959266,Expensive,7.2
Konttiravintola Morton,13031,Burger Joint,60.162805,24.922519,0.9922976205870945,Most Affordable,7.2
DIF Döner,13288,Kebab Restaurant,60.163256,24.916327,0.9932917367127894,Not Listed,7.1
Sky Express,13064,Pizzeria,60.16828,24.935268,0.988967735678262,Most Affordable,7.0
Haiku,13276,Sushi Restaurant,60.169745,24.936871,0.989266778740463,Affordable,6.9
The Old Irish Pub,13010,Dive Bar,60.167879,24.940609,0.997041898357688,Not Listed,6.8
Phở Việt - Vietnamese Kitchen,13379,Vietnamese Restaurant,60.167793,24.937554,0.988507047717574,Affordable,6.7
Itsudemo,13276,Sushi Restaurant,60.17058,24.934274,0.988159511185827,Affordable,6.7
Central Library Oodi (Keskustakirjasto Oodi),12080,Library,60.173705,24.938034,0.9997575326522696,Not Listed,9.3
Juova Hanahuone,13006,Beer Bar,60.171119,24.947052,0.998868485710591,Not Listed,8.6
La Torrefazione,13034,Café,60.170754,24.936207,0.9975187508082244,Most Affordable,8.4
Musiikkitalo,10037,Concert Hall,60.173516,24.934199,0.9988523212207424,Not Listed,8.2
Kaisla,13006,Beer Bar,60.172154,24.946808,0.9982865640760378,Affordable,7.9
Junk y Vegan,13377,Vegan and Vegetarian Restaurant,60.172207,24.9376,0.9744035303245828,Affordable,7.8
Woolshed Bar & Kitchen,13003,Bar,60.173562,24.939111,0.9968802534592008,Affordable,7.6
Bierhaus München,13006,Beer Bar,60.173562,24.939111,0.9958053148842624,Not Listed,7.3
Papu Cafe,13034,Café,60.173107,24.956149,0.954998060261218,Most Affordable,8.6
Ravintola Kolme Kruunua,13336,Scandinavian Restaurant,60.174381,24.958888,0.9854681236260184,Affordable,8.4
Puutarharavintola Viola,13034,Café,60.175917,24.946519,0.9822109789215052,Most Affordable,7.2
Kiinalainen Ravintola Family,13099,Chinese Restaurant,60.17425,24.950919,0.9819927583085479,Most Affordable,7.2
Eat Poke HKI,13193,Poke Restaurant,60.169558,24.944774,0.9855166170955644,Not Listed,8.1
Dylan Marmoripiha,13065,Restaurant,60.16846,24.943176,0.994900103452735,Not Listed,7.8
Hub Helsinki,11021,Business Center,60.17259,24.945375,0.9909721324195008,Expensive,7.3
Robert's Coffee Citykäytävä,13034,Café,60.16914,24.941446,0.997599573257468,Affordable,6.9
Cafe Ateneum Oy,13310,Modern European Restaurant,60.170089,24.944016,0.9902366481313849,Not Listed,6.9
Kotipizza Kruununhaka,13032,"Cafe, Coffee, and Tea House",60.170753,24.956303,0.9812896030001294,Most Affordable,6.7
Hesburger,13145,Fast Food Restaurant,60.167258,24.941591,0.9916106297685244,Most Affordable,6.6
Ravintola Everest Katajanokka,13194,Himalayan Restaurant,60.167711,24.966438,0.9692874692874692,Affordable,8.3
Tervasaaren koira-aitaus,16033,Dog Park,60.173582,24.96878,0.9417270140954352,Not Listed,8.1
Ravintola Wellamo,13336,Scandinavian Restaurant,60.168321,24.968632,0.9643088064140696,Affordable,7.9
Locanda Scappi,13236,Italian Restaurant,60.166736,24.963447,0.9790184921763868,Affordable,7.5
Ravintola Sipuli,13025,Wine Bar,60.168997,24.960133,0.9716959782749256,Not Listed,6.9
Ravintola Sipuli,13354,Theme Restaurant,60.168948,24.960192,0.9887495150653044,Not Listed,6.7
Robert's Coffee Katajannokka,13034,Café,60.16374,24.968446,0.6139596534333377,Most Affordable,6.5
Katajanokan Kasino,13065,Restaurant,60.169257,24.965123,0.9810713823871718,Not Listed,6.4
Ravintola Savu,13336,Scandinavian Restaurant,60.173631,24.968721,0.9327314754946334,Affordable,5.9
Ravintola Pukki,13065,Restaurant,60.17474,24.983969,0.9690369196948143,Not Listed,5.0
Jailyard Terrace,13065,Restaurant,60.166882,24.96914,0.9273971938445624,Not Listed,4.9
Holvi,13065,Restaurant,60.168029,24.972373,0.9557497090391828,Not Listed,0.0
Louhimo 4 Helsinki - Tampere,19042,Bus Station,60.164808,24.970419,0.7245328462433726,Not Listed,0.0
Laivastopuiston koira-aitaus,16033,Dog Park,60.168681,24.966838,0.4800772662614768,Not Listed,0.0
Valfreyia Club,13336,Scandinavian Restaurant,60.165039,24.968221,0.8854584249321091,Affordable,0.0
Wanha Satama,13065,Restaurant,60.165758,24.96712,0.9932189965084702,Not Listed,0.0
Mediterranée Kebab Pizzeria,13288,Kebab Restaurant,60.165214,24.967668,0.3279613345402819,Not Listed,0.0
Via Tribunali,13064,Pizzeria,60.166158,24.965957,0.9766019009440062,Most Affordable,0.0
Fly Fusion Cafe,13034,Café,60.168098,24.965065,0.9701199405146772,Affordable,0.0
Oishi 18 Katajanokka,13276,Sushi Restaurant,60.166486,24.965331,0.9713726884779516,Affordable,0.0
Ravintola Makasiini,13336,Scandinavian Restaurant,60.165913,24.964561,0.340472649683176,Affordable,0.0
Beaky Basterd & Co,13009,Cocktail Bar,60.166922,24.963899,0.9781051984999354,Expensive,0.0
Pinto Ristorante,13236,Italian Restaurant,60.167634,24.962693,0.709540281908703,Affordable,0.0
Katajanokan puiston koira-aitaus,16033,Dog Park,60.167094,24.962448,0.1427405276089486,Not Listed,0.0
Promestari,13021,Speakeasy,60.168998,24.961825,0.4247623819992241,Expensive,0.0
Cafe Kobben,13034,Café,60.161876,24.982337,0.2943729972195378,Most Affordable,0.0
Crazy Wine,13025,Wine Bar,60.168988,24.960821,0.4102385878701668,Affordable,0.0
The Old Man & The Si,13018,Pub,60.171837,24.961871,0.9307432432432432,Most Affordable,0.0
Crazywine,13025,Wine Bar,60.168958,24.959503,0.4284559679296521,Affordable,0.0
Lapin Kulta Solar Kitchen Kalasatama,13065,Restaurant,60.176505,24.974371,0.6859967024440708,Not Listed,0.0
Allas Wine & Dine,13065,Restaurant,60.166825,24.958147,0.9770868356394672,Not Listed,0.0
Miss Sushi Helsinki,13276,Sushi Restaurant,60.171223,24.958779,0.9803763093236776,Affordable,0.0
Malee Thai Tmi,13065,Restaurant,60.167209,24.974385,0.0,Not Listed,0.0
Royal Ravintolat Oy,13065,Restaurant,60.168977,24.959818,0.0,Not Listed,0.0
Ravintola BRO,13013,Hotel Bar,60.17717,24.951429,0.9889839001681108,Expensive,8.0
Kahvisiskot,10000,Arts and Entertainment,60.178615,24.951025,0.9948516099831889,Most Affordable,8.0
Gastropub Stone's,13031,Burger Joint,60.169095,24.942404,0.9947950342687184,Affordable,6.4
Praha,13006,Beer Bar,60.169442,24.940401,0.9980036855036856,Affordable,6.3
On the Rocks,10010,Comedy Club,60.171138,24.945674,0.9984401267296004,Expensive,6.3
Juttutupa,13003,Bar,60.178802,24.947298,0.9961366869261606,Affordable,6.2
Vltava,13003,Bar,60.171394,24.939717,0.9979390275442906,Affordable,6.1
Patisserie Teemu Aura,13034,Café,60.178732,24.949529,0.9908913099702571,Most Affordable,8.7
Ravintola Viet Balo,13379,Vietnamese Restaurant,60.174387,24.957301,0.9736033880770724,Affordable,8.7
Flying Dutch,13007,Beer Garden,60.176726,24.949373,0.969925966636493,Affordable,8.2
Konditoria Kakku & Leipä Keisari Kruununhaka,13002,Bakery,60.173997,24.953597,0.9808531617742146,Most Affordable,8.2
Ravintola Zinnkeller,13152,Brasserie,60.174404,24.958409,0.9933563946721842,Affordable,7.7
Madonna,13236,Italian Restaurant,60.181237,24.95766,0.977935471356524,Affordable,7.6
Lounaskahvila Raiku,13034,Café,60.180403,24.951898,0.9822028966765808,Most Affordable,7.5
Ravintola Sävel,13031,Burger Joint,60.180676,24.951227,0.9797054829949566,Affordable,7.3
Vapiano,13236,Italian Restaurant,60.171138,24.945674,0.9906650071123756,Affordable,6.8
Casino Helsinki,10008,Casino,60.172137,24.9457,0.9902285658864606,Not Listed,6.6
Molly Malone's,13006,Beer Bar,60.170914,24.946286,0.996144769171085,Affordable,6.6
Mascot Bar & Live Stage,10039,Music Venue,60.181674,24.95374,0.9874563558774084,Affordable,6.5
Street Bar,13010,Dive Bar,60.181198,24.952851,0.978582050950472,Most Affordable,6.4
Kauppatorin Grilli,13058,Hot Dog Joint,60.167207,24.954183,0.9951425708004656,Most Affordable,6.3
Kauppatorin Laituri,13003,Bar,60.166647,24.953623,0.9511266649424543,Affordable,6.2
Ristorante Vaelsa,13025,Wine Bar,60.168131,24.953849,0.991877343851028,Affordable,6.1
Memphis Hakaniemi,13065,Restaurant,60.180212,24.948856,0.9874240268977112,Not Listed,6.0
Osteria dei Gusti,13065,Restaurant,60.173567,24.931654,0.9854357946463207,Not Listed,8.3
Ravintola Meripaviljongin terassi,13009,Cocktail Bar,60.179352,24.946854,0.9729670188039844,Expensive,7.8
Ravintola Meripaviljonki,13310,Modern European Restaurant,60.179401,24.946795,0.983577551827758,Expensive,7.8
Storyville,10040,Jazz and Blues Venue,60.17385,24.931986,0.9901396611922927,Not Listed,7.5
Cafetoria roastery,13034,Café,60.173352,24.923222,0.9910933660933658,Most Affordable,9.2
St. Urho's Pub,13006,Beer Bar,60.174081,24.931479,0.9950698305961464,Affordable,7.6
Manala,13003,Bar,60.174074,24.931374,0.9932513254881676,Affordable,6.7
Big Bowl Noodle Restaurant,13315,Noodle Restaurant,60.16688,24.930538,0.9898729471097892,Most Affordable,9.2
Goose Pastabar,13236,Italian Restaurant,60.164336,24.927654,0.9825342687184792,Affordable,8.8
Hietalahden Kauppahalli (Hietalahden kauppahalli),13145,Fast Food Restaurant,60.163025,24.929362,0.998545195913617,Not Listed,8.6
Barley & Bait,13006,Beer Bar,60.158137,24.91342,0.9960073710073709,Not Listed,8.1
Ravintola Mount Kailash,13194,Himalayan Restaurant,60.158111,24.921351,0.9867127893443683,Not Listed,7.6
Aussie Bar,13018,Pub,60.170071,24.932861,0.9972520367257208,Affordable,6.4
Kampin Pippuri,13032,"Cafe, Coffee, and Tea House",60.168773,24.928911,0.9829302987197724,Affordable,6.3
Kalevan Krouvi,13018,Pub,60.164056,24.92822,0.9892586964955384,Most Affordable,6.2
Faro Channelside Bar & Restaurant,13065,Restaurant,60.16161,24.91269,0.9799317858528382,Not Listed,6.1
Kitchen & Table Helsinki,13003,Bar,60.159462,24.921963,0.980610694426484,Expensive,5.9
Ravintola Kabuki,13276,Sushi Restaurant,60.16711,24.924163,0.9742984611405664,Affordable,8.6
Konstan Möljä,13336,Scandinavian Restaurant,60.163964,24.926752,0.9739832535885167,Affordable,8.4
Aangan,13194,Himalayan Restaurant,60.163128,24.927657,0.9700310358205096,Not Listed,8.3
Shinobi,13263,Japanese Restaurant,60.164925,24.932016,0.968980343980344,Affordable,8.2
Fat Ramen,13272,Ramen Restaurant,60.162963,24.929212,0.98190385361438,Affordable,8.0
Pretty Boy Wingery,13388,Wings Joint,60.167394,24.930364,0.9919581663002716,Most Affordable,7.9
Huutokonttorin Kanttiini,13009,Cocktail Bar,60.159722,24.921082,0.9852579852579852,Affordable,7.7
The Saigonese,13379,Vietnamese Restaurant,60.167199,24.926425,0.9703381611276348,Affordable,7.2
Jätkäsaaren Infokeskus Ja Kirjasto,12080,Library,60.156502,24.920826,0.9711625501099184,Not Listed,6.8
Ravintola Hima & Sali Kaapelitehdas,13336,Scandinavian Restaurant,60.161871,24.902666,0.9909478856847278,Affordable,6.2
Bar Mendocino,13006,Beer Bar,60.1658,24.93174,0.983544549334023,Not Listed,6.1
Cafe Picnic,13034,Café,60.163627,24.915538,0.977014095435148,Most Affordable,6.0
Ravintola Meritähti,13065,Restaurant,60.162701,24.914182,0.9816452217768008,Affordable,5.9
Urbine,13065,Restaurant,60.157229,24.921522,0.9900507564981249,Not Listed,5.9
Hesburger,13145,Fast Food Restaurant,60.162923,24.914364,0.9919339195654984,Most Affordable,5.6
Ravintola Dacca,13064,Pizzeria,60.162557,24.913567,0.9551597051597052,Most Affordable,5.5
Ravintola Eerikinkulma,13010,Dive Bar,60.165745,24.931695,0.9877958101642312,Most Affordable,5.3
Kotipizza Ruoholahti,13064,Pizzeria,60.163325,24.920758,0.9697481572481571,Most Affordable,5.1
Burger King,13145,Fast Food Restaurant,60.163541,24.909999,0.9942616061037115,Most Affordable,5.0
HSL 1011 Länsiväylä,19043,Bus Stop,60.165597,24.913476,0.9476755463597568,Not Listed,0.0
Ravintola Roihu,13065,Restaurant,60.16485,24.910775,0.9769171084960558,Not Listed,0.0
Dylan Milk,13030,Buffet,60.164653,24.909322,0.9833020819862924,Not Listed,0.0
Länsilinkin koira-aitaus,16033,Dog Park,60.162183,24.92181,0.9663859433596276,Not Listed,0.0
Bistro Gimis,13027,Bistro,60.162084,24.924413,0.9842557868873658,Not Listed,0.0
HTC Helsinki,13034,Café,60.161268,24.904755,0.9538988749515064,Not Listed,0.0
HTC Helsinki,13034,Café,60.161104,24.903826,0.9736276348118452,Not Listed,0.0
Koi Sushi,13276,Sushi Restaurant,60.157739,24.912099,0.9733124272597956,Affordable,0.0
Min By Technopolis,13065,Restaurant,60.165926,24.902015,0.9548202508728825,Not Listed,0.0
Café Tin Tin Tango,13034,Café,60.178467,24.925234,0.9968317599896547,Affordable,8.2
Ravintola KuuKuu,13003,Bar,60.175303,24.925023,0.9866804603646709,Expensive,8.4
Bar Bhangra,13003,Bar,60.174682,24.921828,0.9761008017586964,Affordable,7.4
Taivallahti,13065,Restaurant,60.175668,24.913288,0.9730133841975946,Not Listed,6.6
Fazer Food & Co,13065,Restaurant,60.17376,24.93808,0.9928552954868743,Not Listed,6.4
Ravintola Villi Wäinö,13018,Pub,60.167778,24.93983,0.9920874822190612,Expensive,5.9
Deliberi K7,13065,Restaurant,60.169584,24.943502,0.9964518944782104,Not Listed,6.1
Iguana,13003,Bar,60.169267,24.942645,0.9876180007758956,Most Affordable,6.0
Apollo Live Club,10039,Music Venue,60.168822,24.938897,0.9968721712142764,Expensive,5.8
Cafe Java,13035,Coffee Shop,60.16998,24.937262,0.9927421440579336,Most Affordable,5.7
Panimoravintola Bruuveri,13003,Bar,60.168632,24.931679,0.998981637139532,Affordable,5.6
Casa Largo,13347,Tapas Restaurant,60.170482,24.93857,0.996815595499806,Affordable,5.5
Pub 99,13018,Pub,60.181918,24.926676,0.9955062718220612,Expensive,5.5
Burger King,13145,Fast Food Restaurant,60.167928,24.94055,0.9943990042674252,Affordable,5.4
Daddy Greens Pizzabar,13064,Pizzeria,60.184944,24.920506,0.9798024699340488,Most Affordable,9.3
Cafe Regatta,13034,Café,60.180197,24.911834,0.9963387430492694,Most Affordable,9.3
Sinisen huvilan kahvila,13034,Café,60.181315,24.937124,0.9762543644122592,Affordable,9.1
Lie Mi,13379,Vietnamese Restaurant,60.181153,24.925351,0.9859126470968576,Affordable,8.9
Twisted Street Kitchen,13072,Asian Restaurant,60.17054,24.927776,0.9817745376955904,Affordable,8.7
Pinehill Terrace,13005,Beach Bar,60.18359,24.929044,0.9897921246605456,Not Listed,8.6
Ravintola Laiska Karhu,13018,Pub,60.174413,24.91922,0.962724686408897,Most Affordable,8.4
Töölö Library (Töölön kirjasto),12080,Library,60.183343,24.9176,0.9905922669080564,Not Listed,8.4
Carelia,13027,Bistro,60.181167,24.927253,0.9922652916073968,Expensive,8.3
Elite,13336,Scandinavian Restaurant,60.1766,24.923104,0.9927178973231604,Expensive,7.9
Vastarannan Kiiski,13006,Beer Bar,60.174113,24.921957,0.979463015647226,Expensive,7.7
Meritalli,13003,Bar,60.178127,24.912324,0.954602030259925,Affordable,7.6
Ravintola Lehtovaara,13336,Scandinavian Restaurant,60.183605,24.915925,0.975236001551791,Expensive,7.5
Jaskan Grilli,13026,BBQ Joint,60.174074,24.931374,0.9754784688995216,Most Affordable,7.5
Finnjävel,13336,Scandinavian Restaurant,60.171789,24.931786,0.973409414198888,Affordable,7.5
Mamma Rosa,13236,Italian Restaurant,60.179436,24.923941,0.9848781197465409,Affordable,7.4
Kahvila Marocco,13034,Café,60.174931,24.928299,0.9815805638174059,Most Affordable,7.1
Korjaamon Baari,13003,Bar,60.184335,24.920006,0.981928100349153,Expensive,7.0
Relove,13034,Café,60.178661,24.923304,0.977474783395836,Not Listed,6.7
Ravintola Hook,13049,Diner,60.183386,24.925792,0.9885232122074228,Most Affordable,6.5
Ravintola Zuhat,13064,Pizzeria,60.183582,24.91889,0.9873674511832408,Most Affordable,6.3
Bierhuis Rotterdam,13006,Beer Bar,60.168942,24.932431,0.999838355101513,Affordable,5.9
Ravintola Mestaritalli,13065,Restaurant,60.177981,24.912502,0.9671860856071385,Not Listed,5.8
Ravintola Factory,13065,Restaurant,60.168988,24.928988,0.9928957067114962,Not Listed,5.7
William K. Mannerheimintie,13006,Beer Bar,60.183517,24.923712,0.9835849605586447,Affordable,5.7
Picnic,13034,Café,60.183974,24.917621,0.9793498642182852,Affordable,5.2
Pub Ikkuna,13018,Pub,60.16988,24.933997,0.995983124272598,Affordable,5.1
Ravintola Ateljé Finne,13336,Scandinavian Restaurant,60.171045,24.92829,0.97332050950472,Expensive,8.8
Bar Favela,13003,Bar,60.172028,24.920544,0.9935503685503686,Affordable,8.6
Cafe Taideterassi,13034,Café,60.181545,24.936617,0.9793256174835122,Most Affordable,8.5
Töölönlahden kierros,16019,Hiking Trail,60.18397,24.935923,0.9667334798913746,Not Listed,8.2
Fafa's Ooppera,13144,Falafel Restaurant,60.181443,24.925788,0.9194927583085478,Most Affordable,8.0
Nepalilainen Ravintola Mountain,13194,Himalayan Restaurant,60.186294,24.916939,0.9754138109401268,Affordable,7.8
Terrace,13007,Beer Garden,60.173896,24.93272,0.9334103840682788,Most Affordable,7.7
Ravintola Lukla,13194,Himalayan Restaurant,60.181697,24.926494,0.9696834992887624,Affordable,7.4
Ravintola Coma,13302,Mediterranean Restaurant,60.174648,24.927966,0.9476512996249838,Affordable,7.4
Janoinen Lohi,13006,Beer Bar,60.1851,24.917152,0.9894445881287987,Affordable,7.0
Kotipizza Topeliuksenkatu,13032,"Cafe, Coffee, and Tea House",60.184411,24.91788,0.9565094400620716,Most Affordable,6.4
Musiikkitalon terassi,13007,Beer Garden,60.173826,24.934951,0.9710655631708264,Most Affordable,6.4
Skiffer Töölö,13064,Pizzeria,60.177263,24.921958,0.9805379542221648,Most Affordable,6.2
Ravintola Famu & Bar,13003,Bar,60.179146,24.927682,0.9844497607655502,Affordable,6.1
Ravintola Hong Kong,13099,Chinese Restaurant,60.185521,24.922174,0.9458247122720808,Most Affordable,5.9
Harju 8,13027,Bistro,60.186768,24.95793,0.9917237811974654,Not Listed,8.9
Kallion Kirjasto,12080,Library,60.183555,24.953595,0.9982299883615672,Not Listed,8.8
Way Bakery and Wine Bar,13002,Bakery,60.184486,24.953365,0.989016229147808,Most Affordable,8.7
Flät no 14,13034,Café,60.183597,24.951738,0.9928310487521013,Most Affordable,8.7
Linnanmäki,10001,Amusement Park,60.188361,24.940627,0.9984805379542221,Affordable,8.6
Lie Mi,13379,Vietnamese Restaurant,60.185852,24.961755,0.9918611793611792,Affordable,8.6
Ravintola Zorbas,13177,Greek Restaurant,60.187566,24.948035,0.9835122203543257,Affordable,8.4
Bar Molotow,13003,Bar,60.188539,24.953514,0.9943585930428037,Affordable,8.3
Gastro Cafe Kallio,13034,Café,60.184854,24.953369,0.9863248415879996,Most Affordable,8.2
Sivukirjasto,13006,Beer Bar,60.184438,24.953425,0.9927502263028579,Affordable,8.1
Döner Harju,13288,Kebab Restaurant,60.18863,24.95329,0.9689399327557222,Affordable,8.1
Cafe II-Linja 23,13018,Pub,60.183078,24.945141,0.980546036467089,Most Affordable,8.0
Bar 10 Kallio,13057,Gastropub,60.185717,24.952884,0.9940353032458296,Expensive,7.8
Siltanen,10039,Music Venue,60.184093,24.960219,0.9959750420276736,Affordable,7.8
Ravintola Hämeentie - Bites Kallio,13065,Restaurant,60.184745,24.960844,0.9907539118065435,Not Listed,7.7
Beaver Bar/Majava Baari,13010,Dive Bar,60.182816,24.952688,0.9923137850769429,Most Affordable,7.4
Bar Loosister,13003,Bar,60.187069,24.961065,0.9969610759084445,Affordable,7.2
Pihka Lintulahti,13336,Scandinavian Restaurant,60.184094,24.962201,0.9942373593689384,Affordable,6.6
King Kebab Kallio,13064,Pizzeria,60.188495,24.956165,0.9841022242338032,Not Listed,6.5
Väinö Vähäkallion puiston koira-aitaus,16033,Dog Park,60.18342,24.962343,0.9621912582438898,Not Listed,6.3
William K. Kurvi,13018,Pub,60.187401,24.961338,0.9957810681494892,Expensive,6.3
Ravintola Lepakkomies,13003,Bar,60.187722,24.959661,0.9893476011897064,Most Affordable,6.1
Fairytale,13011,Gay Bar,60.187575,24.957399,0.9884666364929525,Affordable,6.0
Ravintola Oiva,13003,Bar,60.181897,24.951435,0.9962821673347987,Affordable,5.9
Grand Casino Helsinki,10008,Casino,60.172137,24.9457,0.97941452217768,Most Affordable,5.9
Lemon Grass,13352,Thai Restaurant,60.182273,24.949057,0.9886121169015906,Affordable,9.0
Kahvila Sävy,10000,Arts and Entertainment,60.189223,24.958556,0.9970580628475364,Affordable,9.0
Ravintola Tanner,13336,Scandinavian Restaurant,60.183155,24.958939,0.9913115867063236,Affordable,8.7
Daddy Greens Pizzabar - Kallio,13064,Pizzeria,60.183779,24.95129,0.9738943488943488,Most Affordable,8.3
BLINIt,13330,Blini House,60.18786,24.945191,0.9749207939997414,Not Listed,8.0
Pihvipaikka Karhunpesä,13032,"Cafe, Coffee, and Tea House",60.185388,24.943457,0.986615802405276,Most Expensive,7.5
Skiffer Kallio,13064,Pizzeria,60.185384,24.952611,0.965311004784689,Most Affordable,7.5
Zen Sushi,13276,Sushi Restaurant,60.174368,24.952807,0.9735225656278288,Affordable,7.5
Hilpeä Hauki,13006,Beer Bar,60.188455,24.959716,0.9845305832147935,Affordable,7.4
Pub Aleksis K,13010,Dive Bar,60.189157,24.957506,0.9743631190999612,Most Affordable,7.2
Ravintola Kuudes Linja,10039,Music Venue,60.183846,24.959906,0.978533557480926,Not Listed,7.0
Helsing Bar,13010,Dive Bar,60.18486,24.951781,0.9764483382904436,Most Affordable,6.5
Ääniwalli,10039,Music Venue,60.195243,24.949869,0.9832859174964438,Not Listed,8.7
Konepaja Biergarten,13007,Beer Garden,60.192953,24.947687,0.9772484805379542,Most Affordable,8.6
Helsingin kaupunginkirjasto Vallilan kirjasto,12080,Library,60.192139,24.962349,0.9802469934048882,Not Listed,8.4
Maltainen Riekko,13018,Pub,60.192254,24.944923,0.9938979050821156,Expensive,8.0
King Kebab,13032,"Cafe, Coffee, and Tea House",60.195046,24.956776,0.9940272210009052,Most Affordable,7.8
Oluthuone Konepaja,13006,Beer Bar,60.191066,24.94942,0.9863975817923187,Not Listed,7.3
Naughty BRGR,13031,Burger Joint,60.192302,24.953225,0.9897193844562264,Most Affordable,6.7
Weeruska,13049,Diner,60.190833,24.946541,0.9858803181171604,Affordable,6.3
Alppilan Huone,13003,Bar,60.190822,24.945537,0.960025216604164,Affordable,8.3
Ravintola Iltakoulu,13010,Dive Bar,60.188391,24.96036,0.9894607526186474,Affordable,6.2
Ravintola Rytmi,13010,Dive Bar,60.181034,24.950227,0.9937120134488556,Affordable,6.0
Palace restaurant,13065,Restaurant,60.165334,24.951947,0.9558628604681236,Not Listed,7.8
Bar Haven,13013,Hotel Bar,60.166613,24.951406,0.9579076684339842,Expensive,7.8
Scandinavia Cafe,10000,Arts and Entertainment,60.166177,24.952839,0.9940595499806026,Most Affordable,7.6
Zhèn,13099,Chinese Restaurant,60.164643,24.950981,0.9709362472520368,Most Affordable,7.4
Kalakauppa E. Eriksson,13065,Restaurant,60.165816,24.95294,0.9783557480925902,Not Listed,7.2
Goodwin The Steak House,13383,Steakhouse,60.166291,24.952137,0.9719303633777318,Expensive,6.2
Tapahtumatalo Bank,13065,Restaurant,60.165991,24.950696,0.9835768783137204,Not Listed,5.2
Kahvila Kasinonranta,13034,Café,60.155609,24.872496,0.9941484546747704,Affordable,8.7
Ravintola Borneo,13299,Malay Restaurant,60.152125,24.879675,0.9902770593560069,Affordable,8.6
Maggio Pizzeria Viinibaari,13064,Pizzeria,60.154448,24.882373,0.9845709944394156,Most Affordable,8.5
Makers Kahvila,13034,Café,60.155649,24.882263,0.9837789344368292,Most Affordable,8.2
Ravintola Persilja,13302,Mediterranean Restaurant,60.157929,24.880952,0.9904871977240398,Affordable,7.9
Paseo Cafe & Grill,13065,Restaurant,60.14684,24.883294,0.9945848959006852,Not Listed,7.8
Trattoria Limone,13236,Italian Restaurant,60.151128,24.885515,0.980958230958231,Affordable,7.4
Bistro Telakka,13027,Bistro,60.155135,24.886612,0.9864379930169404,Not Listed,6.9
Ravintola Wanha Herra,13003,Bar,60.14898,24.882265,0.9924835122203544,Affordable,6.8
Ravintola Lumbini,13194,Himalayan Restaurant,60.15426,24.886888,0.9889354066985646,Not Listed,6.7
Blue Peter,13016,Lounge,60.151609,24.891472,0.9851205870942712,Affordable,6.5
Ravintola Loru,13065,Restaurant,60.152701,24.87965,0.9823887883098408,Not Listed,6.4
Thai-China ruokaravintola,13352,Thai Restaurant,60.153545,24.88054,0.9910529548687445,Affordable,5.8
Bar '52,13003,Bar,60.15438,24.879635,0.9919258373205742,Affordable,5.3
Sirat,13316,Pakistani Restaurant,60.15066,24.886423,0.2503313720418983,Not Listed,0.0
Kirkuk Leipomo,13002,Bakery,60.150722,24.886573,0.9866481313849736,Not Listed,0.0
Dolife,18028,Yoga Studio,60.150758,24.886304,0.6754493728177938,Not Listed,0.0
Osaka Sushi,13276,Sushi Restaurant,60.151236,24.886398,0.985298396482607,Affordable,0.0
HSL 1047 Vattuniemi,19043,Bus Stop,60.151232,24.885501,0.9469723910513383,Not Listed,0.0
Studio Shangri-La,10012,Country Dance Club,60.151542,24.886251,0.6563591103064788,Not Listed,0.0
Joanna's,13030,Buffet,60.149286,24.882119,0.6376406310616837,Not Listed,0.0
HSL 1052 Melkonkatu,19043,Bus Stop,60.150874,24.882327,0.942898939609466,Not Listed,0.0
HSL 1051 Melkonkuja,19043,Bus Stop,60.150203,24.881678,0.9890647226173542,Not Listed,0.0
Veijarivuoren puiston koira-aitaus,16033,Dog Park,60.147704,24.88867,0.0830127376180007,Not Listed,0.0
Lallukka's,13336,Scandinavian Restaurant,60.153093,24.887521,0.8791946851157377,Affordable,0.0
Food Corner,13065,Restaurant,60.15339,24.885579,0.6191565369196949,Not Listed,0.0
Ravintola Maharaja,13072,Asian Restaurant,60.148873,24.8789,0.9831566015776542,Affordable,0.0
HSL 1045 Vattuniemenkuja,19043,Bus Stop,60.153569,24.885925,0.9472552696236908,Not Listed,0.0
Merijooga,18028,Yoga Studio,60.153576,24.88603,0.961730570283202,Not Listed,0.0
Moola,18028,Yoga Studio,60.148986,24.878198,0.0677534592008276,Not Listed,0.0
Nepalilainen Ravintola Fewa,13072,Asian Restaurant,60.152444,24.879738,0.4617709815078236,Affordable,0.0
Ravintola Pisara,13030,Buffet,60.152701,24.87965,0.992984611405664,Not Listed,0.0
Lauttasaaren Koiraranta,16033,Dog Park,60.145785,24.88988,0.2206048752101383,Not Listed,0.0
Mitra,13065,Restaurant,60.153274,24.880418,0.8901542092331566,Not Listed,0.0
Hsl 1062 Heikkilänaukio,19043,Bus Stop,60.154009,24.882907,0.3052340618130091,Not Listed,0.0
Afg Restaurant,13066,Afghan Restaurant,60.153268,24.880313,0.4929765291607397,Affordable,0.0
Afg,13066,Afghan Restaurant,60.153316,24.880254,0.4147242338031812,Affordable,0.0
HSL 1055 Kiviaidankatu,19043,Bus Stop,60.154395,24.881535,0.9835364670890988,Not Listed,0.0
Lauttasaaren Herkku,13034,Café,60.155001,24.885309,0.980012608302082,Not Listed,0.0
Melisa,13288,Kebab Restaurant,60.154714,24.881597,0.1501761929393508,Not Listed,0.0
HSL 1043 Heikkiläntie,19043,Bus Stop,60.156547,24.885682,0.9927259795680848,Not Listed,0.0
Bar Naissaar,13027,Bistro,60.148397,24.903843,0.753239981270942,Not Listed,0.0
ST-Ravintolat Oy,13065,Restaurant,60.151245,24.888193,0.0,Not Listed,0.0
Peruna & Co Oy,13065,Restaurant,60.151841,24.885999,0.0,Not Listed,0.0
Hammaslääkäri Annika Ylä-Autio,15007,Dentist,60.149445,24.877977,0.0,Not Listed,0.0
Picnic Finland Oy,13032,"Cafe, Coffee, and Tea House",60.153518,24.880121,0.0,Not Listed,0.0
Isodont Oy,15007,Dentist,60.153733,24.880198,0.0,Not Listed,0.0
MV Restaurants Oy,13065,Restaurant,60.155135,24.886612,0.0,Not Listed,0.0
Helsingin kaupunki Lauttasaaren kirjasto,12080,Library,60.158796,24.883053,0.989452670373723,Not Listed,7.7
Joogakoulu Silta,18028,Yoga Studio,60.158271,24.878053,0.6377699469804733,Not Listed,0.0
Sushi Bar,13276,Sushi Restaurant,60.15435,24.866698,0.388731734126471,Affordable,0.0
Hsl 1027 Gyldénintie,19043,Bus Stop,60.158913,24.876592,0.9946738005948532,Not Listed,0.0
HSL 1031 Kuikkarinne,19043,Bus Stop,60.156744,24.868856,0.576070089227984,Not Listed,0.0
Kahvila Puhuri,13035,Coffee Shop,60.159502,24.87926,0.9959912065175224,Not Listed,0.0
Kaunis Kampela,13006,Beer Bar,60.160875,24.888532,0.995110241820768,Affordable,7.9
Pizzeria Luca,13064,Pizzeria,60.159976,24.880939,0.9971631320315529,Most Affordable,7.7
Casa Mare,13302,Mediterranean Restaurant,60.16016,24.877216,0.9857429199534463,Affordable,6.9
Korat Cafe,13352,Thai Restaurant,60.160313,24.877143,0.2598765032975559,Affordable,6.6
Hanko Sushi,13276,Sushi Restaurant,60.160171,24.880702,0.1181947497736971,Affordable,6.3
Ravintola Rixi-Baari,13007,Beer Garden,60.156563,24.864338,0.9700472003103581,Most Affordable,5.4
Kahvila Gluteeniton Unelma,13035,Coffee Shop,60.159728,24.880339,0.7775766196818829,Most Affordable,0.0
Friends & Brgrs Lauttis,13031,Burger Joint,60.159982,24.881044,0.9677033492822966,Most Affordable,0.0
HSL 1030 Kuikkarinne,19043,Bus Stop,60.157085,24.86844,0.9297652916073968,Not Listed,0.0
Hsl 1024,19043,Bus Stop,60.160326,24.879835,0.9369099961205224,Not Listed,0.0
Hsl 1025,19043,Bus Stop,60.160687,24.879734,0.5079771757403336,Not Listed,0.0
Kirkkokahvila,13034,Café,60.158603,24.869185,0.947586641665589,Most Affordable,0.0
HSL 1041 Pajalahdentie,19043,Bus Stop,60.159641,24.888117,0.9678326652010864,Not Listed,0.0
Chez Olli,13338,Seafood Restaurant,60.161276,24.873261,0.3196042932885038,Expensive,0.0
Kaaren Baari,13007,Beer Garden,60.157204,24.86367,0.9366351997930944,Most Affordable,0.0
Pohjoiskaaren Rantatie,16019,Hiking Trail,60.161237,24.892605,0.9608980990559938,Not Listed,0.0
HSL 1065 Lahnalahdentie,19043,Bus Stop,60.161234,24.868459,0.4802631578947368,Not Listed,0.0
Esanssi,13065,Restaurant,60.161086,24.866947,0.7602967800336221,Not Listed,0.0
Myllykallion koira-aitaus,16033,Dog Park,60.161301,24.867024,0.9432464761412128,Not Listed,0.0
HSL 1066 Katajaharju,19043,Bus Stop,60.161671,24.866234,0.9268960946592526,Not Listed,0.0
Hsl 1033,19043,Bus Stop,60.157775,24.862747,0.5422943876891245,Not Listed,0.0
Katajaharjun Pururata,16019,Hiking Trail,60.163523,24.863975,0.9737892797103325,Not Listed,0.0
Deliria Classics Oy,13065,Restaurant,60.161302,24.862058,0.0,Not Listed,0.0
Ravintola Long River,13099,Chinese Restaurant,60.161761,24.859354,0.9560002586318376,Most Affordable,6.2
Ravintola Mestaritalli,13065,Restaurant,60.158407,24.862767,0.9281811716022242,Not Listed,0.0
Hesus's Herb Garden,13068,American Restaurant,60.156492,24.864875,0.0974799560325876,Affordable,0.0
HSL 1032 Takaniementie,19043,Bus Stop,60.156499,24.86498,0.9498496702444073,Not Listed,0.0
Lystiserkkujen kesäkeittiö,13336,Scandinavian Restaurant,60.154854,24.858073,0.5352224233803181,Affordable,0.0
Larun Metsätie,16019,Hiking Trail,60.159617,24.868625,0.0102967800336221,Not Listed,0.0
HSL 1036 Vaskiniementie,19043,Bus Stop,60.161767,24.859459,0.9477886977886978,Not Listed,0.0
Roskis,13049,Diner,60.161292,24.867712,0.1893831630673736,Most Affordable,0.0
HSL 1038 Koivusaarentie,19043,Bus Stop,60.164942,24.858183,0.917650006465796,Not Listed,0.0
Min Krog NJK,13065,Restaurant,60.162847,24.848325,0.9673558127505496,Not Listed,0.0
T&T Teurastamo,13022,Sports Bar,60.16176,24.861837,0.4692308935729988,Most Affordable,0.0
Salaattibaari Oliivi,13332,Salad Restaurant,60.160844,24.859796,0.5511201991465149,Most Affordable,0.0
HSL 1064 Lahnalahdentie,19043,Bus Stop,60.161347,24.87024,0.5075568990042674,Not Listed,0.0
HSL 1034 Viklakuja,19043,Bus Stop,60.15834,24.86172,0.9526218802534592,Not Listed,0.0
Sushi art,13276,Sushi Restaurant,60.166138,24.84476,0.2151509231170123,Affordable,0.0
HSL E2332 Hanasaari,19043,Bus Stop,60.165826,24.84232,0.9534299825009634,Not Listed,0.0
Kamppiroll Oy,10000,Arts and Entertainment,60.167666,24.858923,0.0,Not Listed,0.0
Fazer Food & Co Ruoholahti,13065,Restaurant,60.163877,24.915346,0.9706372041898358,Not Listed,6.5
Ismet Jätkäsaari,13288,Kebab Restaurant,60.157732,24.911994,0.9550788827104616,Not Listed,5.7
Ravintola Fokka,13065,Restaurant,60.16522,24.909985,0.956380124143282,Most Affordable,5.6
Notre Dam,13010,Dive Bar,60.162613,24.913612,0.96094659252554,Most Affordable,5.6
Hesburger Helsinki Ruoholahti,13145,Fast Food Restaurant,60.164342,24.906879,0.9707422733738523,Most Affordable,4.9
Subway,13039,Deli,60.163405,24.91118,0.937176710203026,Most Affordable,4.7
Fungo,10001,Amusement Park,60.165865,24.903556,0.6231653304021725,Not Listed,0.0
Big House Cafe & Bar,13003,Bar,60.165879,24.903766,0.6893912453122979,Most Affordable,0.0
Takeoff Simulations Oy,10001,Amusement Park,60.165927,24.903706,0.9380576748997802,Not Listed,0.0
Ravintola Silta,13065,Restaurant,60.162277,24.901607,0.0177405276089486,Not Listed,0.0
My Lunch,13065,Restaurant,60.163821,24.906949,0.9499951506530454,Not Listed,0.0
Näkinhammas,15007,Dentist,60.164417,24.907239,0.5441128927971033,Not Listed,0.0
Ebeling Hammaslääkärit,15007,Dentist,60.164434,24.908347,0.916566985645933,Not Listed,0.0
HTC Helsinki,13034,Café,60.161455,24.906897,0.3478274925643346,Not Listed,0.0
Asian Fusion Kitchen,13072,Asian Restaurant,60.163401,24.910282,0.5739444588128799,Affordable,0.0
Osaka Sushi,13276,Sushi Restaurant,60.163678,24.91051,0.6803148842622527,Affordable,0.0
Gateau Ruoholahti,13065,Restaurant,60.162551,24.913462,0.2559162032846243,Not Listed,0.0
"Sodexo, Restaurant Laituri",13065,Restaurant,60.165956,24.914168,0.573831307383939,Not Listed,0.0
Sharmila's,13199,Indian Restaurant,60.162841,24.913899,0.8907684598474074,Affordable,0.0
Kotkotchicken Lapinlahden sairaala,13031,Burger Joint,60.167778,24.913078,0.3602660675029096,Most Affordable,0.0
HSL 1301 Ruoholahti,19043,Bus Stop,60.16318,24.914276,0.040645609724557,Not Listed,0.0
Fazer Amica Itämerenkatu,13030,Buffet,60.163877,24.915346,0.4467460881934566,Not Listed,0.0
Hammaslääkäriasema Ruohonjuuri,15007,Dentist,60.160975,24.913462,0.9302825552825553,Not Listed,0.0
Roll Sushi,13276,Sushi Restaurant,60.159337,24.911621,0.9262737618000776,Affordable,0.0
Lapinlahden koira-aitaus,16033,Dog Park,60.16752,24.91565,0.9486777447303764,Not Listed,0.0
Cafe & Bistro Hiezu,13034,Café,60.173457,24.905707,0.9779031423768266,Most Affordable,0.0
Technopolis Ruoholahti,13032,"Cafe, Coffee, and Tea House",60.166043,24.902211,0.0,Not Listed,0.0
Allmed Lääkäripalvelut Oy,15007,Dentist,60.164483,24.908287,0.0,Not Listed,0.0
Subway,13039,Deli,60.163492,24.910059,0.0,Not Listed,0.0
Ravintola Konservatorio,13065,Restaurant,60.162089,24.914475,0.0,Not Listed,0.0
Hammaslääkäri Anne Miettunen,15007,Dentist,60.16307,24.915877,0.0,Not Listed,0.0
La Sirena,13064,Pizzeria,60.157775,24.916005,0.9649957972326392,Most Affordable,7.2
Subway,13039,Deli,60.156398,24.92084,0.9300481701797492,Most Affordable,4.7
Santa Clara,13065,Restaurant,60.15467,24.908389,0.943109077977499,Not Listed,0.0
Baba's House,13064,Pizzeria,60.154532,24.910363,0.9452751196172248,Most Affordable,0.0
Vessel Bistro,13027,Bistro,60.155174,24.915561,0.3322934178197336,Not Listed,0.0
Siam Thai Modern Restaurant,13352,Thai Restaurant,60.160264,24.918843,0.9696673347989138,Affordable,0.0
Wingman,13388,Wings Joint,60.157229,24.921522,0.3780631708263287,Most Affordable,0.0
Uuno Pizza,13064,Pizzeria,60.152335,24.911345,0.9909155567050304,Most Affordable,0.0
Ashoka India,13199,Indian Restaurant,60.164163,24.91906,0.9204464632096213,Affordable,0.0
Ruyi,13099,Chinese Restaurant,60.163799,24.919955,0.9712757015388594,Most Affordable,0.0
ms Koningsdam Culinary Arts Center,13311,Molecular Gastronomy Restaurant,60.155296,24.92252,0.049576490365964,Most Expensive,0.0
Ravintola Fulbari,13072,Asian Restaurant,60.157324,24.932238,0.9647694943747576,Most Affordable,6.7
Ravintola Båt,13065,Restaurant,60.160764,24.92681,0.9640986680460365,Not Listed,0.0
Restaurant Boat Wäiski,13065,Restaurant,60.160069,24.929123,0.980692320498064,Not Listed,0.0
Fatty Patty,13031,Burger Joint,60.162901,24.929061,0.2603048622785465,Most Affordable,0.0
Enchante Cafe,13034,Café,60.167143,24.934733,0.9789942454416138,Most Affordable,8.3
Ravintola Nanking,13099,Chinese Restaurant,60.165606,24.933669,0.989775960170697,Affordable,8.1
Ravintola Ilves,13003,Bar,60.168496,24.93286,0.9726173541963016,Affordable,7.4
Angleterre,13006,Beer Bar,60.166345,24.934575,0.9912954222164748,Affordable,6.8
Löyly,13065,Restaurant,60.152111,24.930345,0.998084507952929,Expensive,8.8
Ravintola Saaga,13336,Scandinavian Restaurant,60.16292,24.933552,0.96902883744989,Affordable,6.2
Bob's Laundry Bar,13009,Cocktail Bar,60.159043,24.932854,0.9863894995473944,Expensive,0.0
Sinebrychoffin puiston koira-aitaus,16033,Dog Park,60.162033,24.931133,0.9792447950342688,Not Listed,0.0
Ravintola Kiltakellari,13065,Restaurant,60.161913,24.931731,0.9749288762446656,Not Listed,0.0
Bahram,13309,Middle Eastern Restaurant,60.16322,24.929124,0.3910270916849864,Affordable,0.0
Piilo Restaurant & Cafe,13065,Restaurant,60.163169,24.929977,0.9895577395577396,Not Listed,0.0
Tavolàta Ristorante Italiano,13236,Italian Restaurant,60.153267,24.921154,0.9177351188505002,Affordable,0.0
HSL 1172 Merimiehenkatu,19043,Bus Stop,60.160482,24.938212,0.5673331824647614,Not Listed,0.0
Terassi,13064,Pizzeria,60.156922,24.945929,0.3413940256045519,Most Affordable,0.0
Ravintola Kirjatalo,13336,Scandinavian Restaurant,60.161259,24.926321,0.8245263804474331,Affordable,0.0
Trasvetere Pizzabar,13064,Pizzeria,60.159076,24.945114,0.5787291478080951,Most Affordable,0.0
Ravintola Rokka,13336,Scandinavian Restaurant,60.162376,24.932409,0.3495490107332212,Affordable,0.0
HSL 1170 Iso Roobertinkatu,19043,Bus Stop,60.162277,24.935013,0.9582794517005044,Not Listed,0.0
Ravintola Ani,13034,Café,60.157299,24.93351,0.0,Not Listed,0.0
Party Blaster,10000,Arts and Entertainment,60.159104,24.931313,0.0,Not Listed,0.0
Studio Tulijooga,18028,Yoga Studio,60.160739,24.935989,0.0,Not Listed,0.0
La Bottega,13236,Italian Restaurant,60.158438,24.944987,0.9179813785076943,Affordable,8.4
Ravintola Särkänlinna,13336,Scandinavian Restaurant,60.150426,24.966351,0.5639963523855384,Affordable,7.9
Ravintola Jura,13148,French Restaurant,60.15816,24.948936,0.4468511573774731,Expensive,7.4
Kaivopuiston koira-aitaus,16033,Dog Park,60.156615,24.951943,0.92014742014742,Not Listed,7.2
Ravintola Saslik,13139,Eastern European Restaurant,60.158522,24.948835,0.9796569895254106,Not Listed,7.0
Ravintola Central,13064,Pizzeria,60.157274,24.946517,0.9463985516617096,Affordable,6.7
Pizzeria Sopranos,13064,Pizzeria,60.157234,24.945888,0.9488151428940904,Most Affordable,6.0
M/S Silja Symphony,13003,Bar,60.162296,24.958802,0.9437734704581332,Not Listed,5.5
Sushi & Co,13276,Sushi Restaurant,60.156293,24.966102,0.9281045830189022,Affordable,0.0
HSL 1209 Merikatu,19042,Bus Station,60.156008,24.948958,0.2589874563558774,Not Listed,0.0
Salakapakka Wapaus&Wastuu,13021,Speakeasy,60.15814,24.94693,0.2325665976981766,Expensive,0.0
Grill House,13383,Steakhouse,60.162339,24.958637,0.3128002780206423,Most Expensive,0.0
HSL 1203 Vuorimiehenpuistikko,19042,Bus Station,60.158807,24.946683,0.3067616061037114,Not Listed,0.0
Old Port Pub,13018,Pub,60.162358,24.95726,0.9721809129703868,Most Affordable,0.0
La Creperie,13148,French Restaurant,60.156863,24.944986,0.7622526833053149,Expensive,0.0
Moola,18028,Yoga Studio,60.15778,24.944546,0.3551904176904177,Not Listed,0.0
Ravioli,13049,Diner,60.161351,24.949569,0.8106249191775508,Most Affordable,0.0
Phở Nam Ly,13379,Vietnamese Restaurant,60.158314,24.944686,0.9407894736842104,Affordable,0.0
Poke Amigos,13193,Poke Restaurant,60.16046,24.946251,0.9552809388335703,Not Listed,0.0
A Lot,13289,Korean Restaurant,60.160822,24.94615,0.8528384844174318,Affordable,0.0
Night People Oy,10032,Night Club,60.157454,24.956114,0.0,Not Listed,0.0
GM Oulu Oy,13065,Restaurant,60.157503,24.956055,0.0,Not Listed,0.0
Helsingin Kaivohuone Oy,13065,Restaurant,60.157558,24.9561,0.0,Not Listed,0.0
Pörssiravintola Oy,13065,Restaurant,60.157944,24.953035,0.0,Not Listed,0.0
Hammaslääkäri Olli-Veli Kantola,15007,Dentist,60.158246,24.951991,0.0,Not Listed,0.0
Ravintola Kaarle XII,13065,Restaurant,60.165689,24.947564,0.9892182852709168,Expensive,5.7
Ravintola Mount Everest,13027,Bistro,60.172182,24.944742,0.9815482348377084,Affordable,5.9
Jädelino Café Helsinki,13034,Café,60.190252,24.97165,0.979066985645933,Affordable,9.3
"Teurastamon Portti, Roslund",13031,Burger Joint,60.18937,24.97182,0.9943343463080304,Affordable,8.9
B-Side Bar,13007,Beer Garden,60.190217,24.971919,0.9965327169274538,Affordable,8.7
Lopez Y Lopez Teurastamo,13306,Taco Restaurant,60.190217,24.971919,0.982364541575068,Most Affordable,8.4
Stadin Panimo,13003,Bar,60.186763,24.972959,0.9844740075003232,Expensive,8.2
Satama Bar & Bistro,13027,Bistro,60.188294,24.975614,0.9898244536402433,Not Listed,7.8
Kahvila-Ravintola Palema,13034,Café,60.189816,24.97139,0.9903417173154015,Affordable,7.3
Oluthuone Haavi,13006,Beer Bar,60.186521,24.978336,0.9975914910125436,Not Listed,6.3
Lappi Ravintola,13336,Scandinavian Restaurant,60.166601,24.936973,0.9812815207552048,Affordable,8.0
Fyge,13030,Buffet,60.157324,24.913846,0.7685406698564593,Not Listed,0.0
Krung Thep Thai Bistro Jätkäsaari,13352,Thai Restaurant,60.154852,24.907942,0.9868986809776285,Affordable,0.0
Kahvila Centrum Alejandra,13034,Café,60.160215,24.918902,0.1907005689900426,Most Affordable,0.0
Ravintola,13336,Scandinavian Restaurant,60.170133,24.937189,0.9931947497736971,Affordable,7.1
Rajasaaren koira-aitaus,16033,Dog Park,60.182021,24.903287,0.9569054700633648,Not Listed,9.2
Ravintola Messenius,13336,Scandinavian Restaurant,60.188216,24.914936,0.9708877537824906,Affordable,6.2
Kiinalainen ravintola Jing Cheng,13099,Chinese Restaurant,60.177223,24.927992,0.9634601706970128,Most Affordable,5.7
Ravintola Kaarti,13027,Bistro,60.176911,24.917193,0.9605667270140954,Not Listed,5.5
Mr. Don,13003,Bar,60.174578,24.921842,0.9780890340100866,Affordable,5.5
Hesburger Helsinki Töölö,13145,Fast Food Restaurant,60.184169,24.924048,0.9791478080951763,Most Affordable,4.9
Kivelän hammashoitola,15007,Dentist,60.181043,24.918596,0.9784931462563039,Not Listed,0.0
HSL 1312 Töölöntori,19043,Bus Stop,60.179588,24.922175,0.1385135135135135,Not Listed,0.0
Sandels matsal,13065,Restaurant,60.179031,24.922514,0.8545923315660158,Not Listed,0.0
Bistro Miljöö,13027,Bistro,60.178129,24.922371,0.975858334410966,Not Listed,0.0
Mehiläinen,13065,Restaurant,60.177362,24.923531,0.3275814690288374,Not Listed,0.0
Green Hippo - Töölö,13377,Vegan and Vegetarian Restaurant,60.178574,24.924427,0.9855004526057156,Affordable,0.0
Levant Töölö,13309,Middle Eastern Restaurant,60.180045,24.924441,0.9609546747704644,Affordable,0.0
Eliten terassi,13007,Beer Garden,60.176447,24.923178,0.2184630803051855,Most Affordable,0.0
Ravintola Viisi Penniä,13003,Bar,60.190177,24.916048,0.992936117936118,Affordable,8.5
Phad Thai Cafe & Restaurant,13352,Thai Restaurant,60.188988,24.918853,0.9844416785206261,Affordable,7.7
Ravintola Villetta Pizzeria,13064,Pizzeria,60.182121,24.924057,0.3468980343980344,Affordable,7.6
Ölhus Helsinki,13006,Beer Bar,60.189454,24.916251,0.9781456097245572,Not Listed,6.1
"Burger King Helsinki, Meilahti",13145,Fast Food Restaurant,60.190843,24.911621,0.9954335316177422,Most Affordable,5.6
McDonald's,13145,Fast Food Restaurant,60.189868,24.916989,0.996969158153369,Affordable,5.4
Ravintola Mexi,13006,Beer Bar,60.189995,24.916496,0.9541898357687832,Most Affordable,5.4
Karhu Ministeri,13010,Dive Bar,60.189562,24.917136,0.9913519979309451,Most Affordable,5.3
Ravintola Töölö,13022,Sports Bar,60.188297,24.917887,0.985920729341782,Most Affordable,4.9
HSL 1319 Kirjailijan puisto,19043,Bus Stop,60.185431,24.915733,0.9948111987585672,Not Listed,0.0
Hanami Sushi Töölö,13276,Sushi Restaurant,60.185431,24.915733,0.9906811716022242,Affordable,0.0
HSL 1317 Linnankoskenkatu,19043,Bus Stop,60.184989,24.917062,0.9516115996379154,Not Listed,0.0
Folkhälsan Vauvauinti,12009,Education,60.187148,24.914656,0.4209313979050821,Not Listed,0.0
HSL 1329 Raitioliikennemuseo,19043,Bus Stop,60.183594,24.921586,0.9493000775895512,Not Listed,0.0
Hammaslääkäri Meilahti,15007,Dentist,60.187849,24.919111,0.3521110823742402,Not Listed,0.0
HSL 1915 Töölön Kisahalli,19043,Bus Stop,60.18465,24.923348,0.9896870554765292,Not Listed,0.0
Yamato,13263,Japanese Restaurant,60.188638,24.917471,0.8040459718091298,Affordable,0.0
Sushi Panda Helsinki,13276,Sushi Restaurant,60.183322,24.923949,0.9751147678779256,Affordable,0.0
Subway,13039,Deli,60.192126,24.909491,0.9752440837967152,Most Affordable,6.4
Bollis,13022,Sports Bar,60.187549,24.921849,0.9870199146514936,Most Affordable,0.0
HSL 1917 Kansaneläkelaitos,19043,Bus Stop,60.189325,24.917538,0.9255382775119616,Not Listed,0.0
Mullikka,13003,Bar,60.193113,24.90682,0.9916025475236,Affordable,8.6
Manskun Pizza ja Kebab,13064,Pizzeria,60.193113,24.90682,0.9802146644251907,Most Affordable,7.7
Neste K Eläintarha,13034,Café,60.193018,24.930322,0.996031617742144,Not Listed,4.8
HSL 2069 Jäähalli,19043,Bus Stop,60.189171,24.920098,0.9743307901202639,Not Listed,0.0
Royal Club Helsingin Jäähalli,13065,Restaurant,60.189541,24.921794,0.9820735807577913,Not Listed,0.0
Ravintola Main Street,13022,Sports Bar,60.189261,24.92236,0.9926774860985388,Most Affordable,0.0
Suu- ja Hammaskeskus,15007,Dentist,60.189797,24.910862,0.9507387171860856,Not Listed,0.0
Töölön Tullin Apteekki,19043,Bus Stop,60.190814,24.911995,0.9958618905987328,Not Listed,0.0
Bierhaus Berlin,13006,Beer Bar,60.197873,24.929038,0.9973813526445104,Not Listed,8.4
Noodle Story Kallio,13315,Noodle Restaurant,60.185081,24.941911,0.9563397129186604,Most Affordable,8.4
Albina,13025,Wine Bar,60.192635,24.945137,0.9874321091426356,Affordable,8.1
Ukko,10001,Amusement Park,60.189061,24.940904,0.9518298202508728,Not Listed,7.8
Salama,10001,Amusement Park,60.187198,24.939671,0.9715343333764389,Not Listed,7.7
Thai Orchid - Konepaja,13352,Thai Restaurant,60.193279,24.943675,0.97170406051985,Affordable,6.7
Pikajuna,10001,Amusement Park,60.187507,24.938731,0.96598183111341,Not Listed,6.7
Pub Pressapari,13010,Dive Bar,60.185,24.943139,0.9777657442131128,Most Affordable,6.0
Mo'De,13010,Dive Bar,60.191002,24.941703,0.9805056252424672,Most Affordable,5.4
Caruzello,13030,Buffet,60.188663,24.939582,0.9272274667011506,Not Listed,5.3
Restaurant Bistro Stadion,13027,Bistro,60.186952,24.928224,0.9778788956420535,Not Listed,0.0
HSL 2073 Auroran sairaala,15014,Hospital,60.191354,24.925572,0.9838840036208456,Not Listed,0.0
HSL 2074 Eläintarha,19043,Bus Stop,60.192358,24.928188,0.0373803827751196,Not Listed,0.0
HSL 1921 Töölön tulli,19043,Bus Stop,60.192015,24.911887,0.9696592525539894,Not Listed,0.0
Ravintola White Lady,13336,Scandinavian Restaurant,60.195529,24.904326,0.9568569765938189,Affordable,5.7
Bistro Meilahti,13027,Bistro,60.190739,24.911635,0.7224476270528902,Not Listed,0.0
Hammashoitola,15007,Dentist,60.189863,24.907733,0.9206000258631838,Not Listed,0.0
Hsl 1322,19043,Bus Stop,60.190682,24.907411,0.9843366093366094,Not Listed,0.0
Hsl 1380,19043,Bus Stop,60.191041,24.908103,0.9962417561101772,Not Listed,0.0
Pepe's Bar & Grill,13022,Sports Bar,60.18931,24.922301,0.9251422475106684,Most Affordable,0.0
HIFK VIP Lobby,13354,Theme Restaurant,60.189607,24.922843,0.6945153885943359,Not Listed,0.0
HSL 1294 Humallahti,19043,Bus Stop,60.186863,24.901789,0.8277835251519462,Not Listed,0.0
HSL 1327 Töölön tulli,19043,Bus Stop,60.19067,24.91138,0.9313736583473424,Not Listed,0.0
HSL H1333 Naistenklinikka,19043,Bus Stop,60.189534,24.910845,0.2875824388982284,Not Listed,0.0
HSL 1316 Linnankoskenkatu,19043,Bus Stop,60.184316,24.917205,0.097536531747058,Not Listed,0.0
Bar Feltbay,13018,Pub,60.197568,24.900031,0.959402883744989,Most Affordable,5.9
HSL 1318 Kirjailijan puisto,19043,Bus Stop,60.185971,24.915978,0.9549334023018232,Not Listed,0.0
Meiccu,13336,Scandinavian Restaurant,60.194655,24.899629,0.9923299495667915,Affordable,0.0
HSL 1924 Kuusitie,19043,Bus Stop,60.195352,24.900699,0.9632823613086772,Not Listed,0.0
HSL 1384 Meilahdentie,19043,Bus Stop,60.192759,24.895389,0.9746459976723134,Not Listed,0.0
Mario's Club,13236,Italian Restaurant,60.189255,24.922255,0.9368695848959008,Affordable,0.0
Thai O'Cha,13034,Café,60.189325,24.917538,0.9226933272985904,Affordable,7.6
Ravintola Villa Angelica,13034,Café,60.189946,24.884926,0.9575197206776154,Most Affordable,5.7
McDonald's,13145,Fast Food Restaurant,60.195611,24.890667,0.9954012026380448,Affordable,5.3
HSL 1920 Kuusitie,19043,Bus Stop,60.194667,24.902326,0.9731265356265356,Not Listed,0.0
HSL 1918 Töölön tulli,19043,Bus Stop,60.191601,24.911149,0.9722374886848572,Not Listed,0.0
Baari,13013,Hotel Bar,60.190739,24.911635,0.1732752489331436,Expensive,0.0
Pub Huopis,13018,Pub,60.196408,24.895796,0.9574308159834476,Most Affordable,0.0
Ratsastien Koirapuisto,16033,Dog Park,60.197212,24.90521,0.3411919694814431,Not Listed,0.0
HSL 1927 Tilkka,19043,Bus Stop,60.197993,24.901772,0.2345063364800207,Not Listed,0.0
HSL 1387 Paciuksenkaari,19043,Bus Stop,60.195403,24.890695,0.11634391568602091,Not Listed,0.0
McDonald's - Pääkonttori,11124,Office,60.195569,24.890831,0.8438025345920083,Not Listed,0.0
HSL 1926 Tilkka,19043,Bus Stop,60.198152,24.901804,0.952872429846114,Not Listed,0.0
Hsl 1782,19043,Bus Stop,60.198159,24.899422,0.2878410707358075,Not Listed,0.0
HSL 1299 Heikinniementie,19043,Bus Stop,60.188531,24.889136,0.6396611922927712,Not Listed,0.0
Dribble Lounge,13009,Cocktail Bar,60.199017,24.898037,0.4764483382904435,Expensive,0.0
Terveystalo Tilkka Hammaslääkäripalvelut,15007,Dentist,60.199192,24.899971,0.80839421957843,Not Listed,0.0
HSL 1289 Lastenlinna,19043,Bus Stop,60.185136,24.910219,0.45827136945558,Not Listed,0.0
HSL 1290 Lastenlinna,19043,Bus Stop,60.185136,24.910219,0.9317211948790896,Not Listed,0.0
Tilkan Hammasklinikka,15007,Dentist,60.199302,24.900062,0.9504800853485064,Not Listed,0.0
Lotus Motorhome,10001,Amusement Park,60.199245,24.898323,0.3589809905599379,Not Listed,0.0
HSL Reijolankatu 2077,19043,Bus Stop,60.189943,24.917349,0.1156245958877537,Not Listed,0.0
Coronaria Dent Hammasklinikka,15007,Dentist,60.199642,24.897953,0.7125792060002586,Not Listed,0.0
HSL 2070 Jäähalli,19043,Bus Stop,60.189236,24.919454,0.9615850898745636,Not Listed,0.0
Salakapakka Kalamalja,13021,Speakeasy,60.200008,24.896263,0.027099767231346095,Expensive,0.0
Vauvauinti Kultakalat,12009,Education,60.19845,24.897372,0.5756740592266908,Not Listed,0.0
Asumispalvelukeskus Wilhelmiina,12091,Public and Social Service,60.198222,24.897086,0.1050691840165524,Not Listed,0.0
HSL 1928 Ruskeasuo,19043,Bus Stop,60.202581,24.898773,0.942947433079012,Not Listed,0.0
Ravintola Darshan,13072,Asian Restaurant,60.202845,24.898791,0.9792771240139662,Affordable,0.0
PlusTerveys Terveyspuisto,15007,Dentist,60.202194,24.907609,0.1228824518298202,Not Listed,0.0
HSL 2083 Invalidisäätiö,19043,Bus Stop,60.202263,24.907864,0.5707600543126858,Not Listed,0.0
HSL 1386 Paciuksenkaari,19043,Bus Stop,60.195254,24.891667,0.9540686020949178,Not Listed,0.0
Stu,13065,Restaurant,60.204465,24.895345,0.1137737618000775,Not Listed,0.0
Bistro Elo,13027,Bistro,60.205749,24.899881,0.9890970515970516,Not Listed,0.0
HSL 1382 Mäntytie,19043,Bus Stop,60.191185,24.902054,0.4582309582309582,Not Listed,0.0
HSL 1383 Mäntytie,19043,Bus Stop,60.191174,24.90105,0.837587288245183,Not Listed,0.0
Pikku Huopalahden Hammaslääkäriasema Tandex Oy,15007,Dentist,60.205555,24.892658,0.3416607396870554,Not Listed,0.0
HSL 1930 Ruskeasuon Varikko,19043,Bus Stop,60.206835,24.898782,0.3800271563429458,Not Listed,0.0
HSL 1388 Munkkiniemen aukio,19043,Bus Stop,60.196,24.886012,0.9836253717832665,Not Listed,0.0
HSL 1391 Munkkiniemen aukio,19043,Bus Stop,60.197508,24.884962,0.9643977111082376,Not Listed,0.0
HSL 1932 Ruskeasuon varikko,19043,Bus Stop,60.207098,24.8988,0.265857364541575,Not Listed,0.0
HSL 1406 Munkkiniemen aukio,19043,Bus Stop,60.195869,24.885607,0.8283007888271047,Not Listed,0.0
Munkkiniemen pizzeria ja kebab Ky,13064,Pizzeria,60.198474,24.884461,0.9638723651881548,Most Affordable,0.0
HSL 1381 Tukholmankatu,19043,Bus Stop,60.190577,24.905732,0.959540281908703,Not Listed,0.0
A&O Mediclinics Oy,15007,Dentist,60.197699,24.883826,0.936303827751196,Not Listed,0.0
Restaurant Lumbini Munkkiniemi,13194,Himalayan Restaurant,60.199899,24.88374,0.9502295357558516,Not Listed,0.0
Munkkiniemen Hammaslaboratorio Antti Huhtala Oy,15007,Dentist,60.196824,24.884103,0.7036402431139274,Not Listed,0.0
Daniel's,13065,Restaurant,60.198005,24.883679,0.1434679296521401,Not Listed,0.0
HSL 1407 Munkkiniemen aukio,19043,Bus Stop,60.195692,24.884467,0.9785658864606231,Not Listed,0.0
Dentaurus Oy,15007,Dentist,60.197766,24.896512,0.0,Not Listed,0.0
Mediverkko Hammaslääkäripalvelut Oy,15007,Dentist,60.195192,24.891517,0.0,Not Listed,0.0
Ripatti Healthcare,15007,Dentist,60.193017,24.908631,0.0,Not Listed,0.0
Cafe Tarina - Munkkiniemi,13034,Café,60.19861,24.875821,0.9729810552178974,Most Affordable,8.2
Kotipizza Munkkiniemi,13064,Pizzeria,60.197422,24.878627,0.9160982154403208,Most Affordable,6.3
Ravintola Ukko-Munkki,13057,Gastropub,60.199618,24.877642,0.9563720418983576,Expensive,6.2
Hesburger,13034,Café,60.201959,24.881451,0.9942858528384844,Most Affordable,5.0
HSL 1302 Seurasaari,19043,Bus Stop,60.188466,24.885602,0.9609142635458424,Not Listed,0.0
La Rosa,13064,Pizzeria,60.197905,24.879619,0.8039893960946592,Most Affordable,0.0
Royal Pokhara,13199,Indian Restaurant,60.19725,24.878385,0.9816613862666494,Affordable,0.0
HSL 1402 Laajalahden aukio,19043,Bus Stop,60.197755,24.876413,0.7605877408508988,Not Listed,0.0
Ravintola Lia,13098,Caucasian Restaurant,60.199452,24.877506,0.9330547652916074,Not Listed,0.0
Lukusali,12031,College Library,60.20026,24.878666,0.6300514030777189,Not Listed,0.0
La Casetta Nostra,13031,Burger Joint,60.201928,24.882619,0.9585300012931592,Most Affordable,0.0
Drunch,13032,"Cafe, Coffee, and Tea House",60.195086,24.873231,0.9782183499288762,Not Listed,0.0
Cafe Meri,13034,Café,60.185861,24.884262,0.9672022500969868,Most Affordable,7.5
Cafe Torpanranta,13034,Café,60.19439,24.871368,0.9951264063106168,Expensive,7.3
Ravintola Meritorppa,13336,Scandinavian Restaurant,60.192514,24.872416,0.9507791284107072,Affordable,6.9
Seurasaaren Joulupolku,16019,Hiking Trail,60.185218,24.885723,0.9837385232122074,Not Listed,0.0
HSL 1408 Saunalahti,19043,Bus Stop,60.192547,24.880397,0.3932416267942584,Not Listed,0.0
HSL 1409 Saunalahti,19043,Bus Stop,60.192219,24.878537,0.9186279581016424,Not Listed,0.0
HSL 1298 Ruutikellarit,19043,Bus Stop,60.187283,24.895968,0.6443165653691969,Not Listed,0.0
Pyöreä sali,13065,Restaurant,60.191708,24.872948,0.9562346437346436,Not Listed,0.0
Hiltonin Temppu,13065,Restaurant,60.192248,24.873192,0.5664037242984611,Not Listed,0.0
Vista Bar & Lounge,13065,Restaurant,60.192359,24.873283,0.9874967671020304,Not Listed,0.0
Seurasaaren Kruunu,13065,Restaurant,60.181138,24.883472,0.9574065692486744,Not Listed,0.0
HSL 1296 Mäntyniemi,19043,Bus Stop,60.18642,24.89894,0.1347067761541446,Not Listed,0.0
HSL 1385 Meilahdentie,19043,Bus Stop,60.193725,24.894888,0.9750096986939092,Not Listed,0.0
HSL 1410 Kuusiniementie,19043,Bus Stop,60.18668,24.869822,0.8141811069442648,Not Listed,0.0
HSL V1410 Varistontie,19043,Bus Stop,60.187388,24.869409,0.2527722100090521,Not Listed,0.0
HSL 1390 Munkkiniemen aukio,19043,Bus Stop,60.196155,24.885145,0.92263675158412,Not Listed,0.0
HSL 1400 Munkkin. puistotie,19043,Bus Stop,60.196436,24.883785,0.1251373981637139,Not Listed,0.0
HSL 1411 Kuusiniementie,19043,Bus Stop,60.187233,24.867791,0.6726852450536661,Not Listed,0.0
Kuusipuisto,16033,Dog Park,60.195161,24.895171,0.6352563688090004,Not Listed,0.0
Hammaslääkäri Lauri Huhtala,15007,Dentist,60.196941,24.884298,0.1651606750290961,Not Listed,0.0
HSL 1399 Munkkin. puistotie,19043,Bus Stop,60.197105,24.882742,0.5486308677098151,Not Listed,0.0
Sounds Delicious By The Beach,13097,Caribbean Restaurant,60.19439,24.871368,0.861890598732704,Affordable,0.0
Hammaslääkäri Sivula-Nurmio Paula Hammastarha,15007,Dentist,60.195659,24.881457,0.0,Not Listed,0.0
XO-Ravintolat Oy,13032,"Cafe, Coffee, and Tea House",60.195336,24.87801,0.0,Not Listed,0.0
MoMo Services Oy,13065,Restaurant,60.195223,24.892835,0.0,Not Listed,0.0
Helsingin kaupunginkirjasto Munkkiniemen kirjasto,12080,Library,60.196869,24.875687,0.9543999741368163,Not Listed,6.7
Munkan Hammaslääkärit,15007,Dentist,60.197542,24.880515,0.7324857752489331,Not Listed,0.0
Bistro Maria,13027,Bistro,60.198348,24.877496,0.9520237941290572,Not Listed,0.0
HSL 1392 Lokkalantie,19043,Bus Stop,60.199123,24.883104,0.9577056123108756,Not Listed,0.0
HSL 1393 Lokkalantie,19043,Bus Stop,60.199947,24.883681,0.9672426613216089,Not Listed,0.0
HSL 1403 Professorintie,19043,Bus Stop,60.201197,24.876053,0.2036483253588516,Not Listed,0.0
Hsl 1404,19043,Bus Stop,60.201241,24.875095,0.930250226302858,Not Listed,0.0
Naples,13236,Italian Restaurant,60.20133,24.883123,0.9261363636363636,Affordable,0.0
Vitaali Oy,15007,Dentist,60.197646,24.8805,0.0,Not Listed,0.0
Munkkiniemen Hammaslääkärit,15007,Dentist,60.197653,24.880605,0.0,Not Listed,0.0
Ravintola Mauritz,13065,Restaurant,60.198125,24.878108,0.9487747316694684,Not Listed,0.0
Onniexpress,19043,Bus Stop,60.196611,24.885718,0.5145076296392086,Not Listed,0.0
Munkkiniemen Koirapuisto,16033,Dog Park,60.202061,24.864828,0.9625145480408638,Not Listed,0.0
HSL 1394 Niemenmäki,19043,Bus Stop,60.201959,24.881451,0.9308887236518816,Not Listed,0.0
Delivo Oy,13032,"Cafe, Coffee, and Tea House",60.198076,24.878168,0.0,Not Listed,0.0
Hammaslääkäri Virkkunen-Jousmäki Liisa,15007,Dentist,60.195756,24.881338,0.0,Not Listed,0.0
Fazer Café Munkkivuori,13034,Café,60.205807,24.877545,0.9707988490883229,Expensive,6.1
Pizza Hut Munkkivuori,13064,Pizzeria,60.206137,24.878611,0.9745490107332212,Most Affordable,5.9
HSL 1395 Niemenmäki,19043,Bus Stop,60.202679,24.882042,0.9495425449372816,Not Listed,0.0
Kanala,13007,Beer Garden,60.204588,24.874059,0.900410578042157,Most Affordable,0.0
HSL 1485 Munkkivuoren ostoskeskus,19043,Bus Stop,60.205652,24.878412,0.990810487521014,Not Listed,0.0
Hammasklinikka,15007,Dentist,60.205709,24.877664,0.1321527867580499,Not Listed,0.0
HSL H1377 Munkkivuoren kirkko,19043,Bus Stop,60.205776,24.876226,0.0179749127117548,Not Listed,0.0
Ristorante E’Milano,13236,Italian Restaurant,60.205962,24.876677,0.2877036725720936,Affordable,0.0
HSL 1397 Munkkivuori,19043,Bus Stop,60.205791,24.880616,0.9319313332471229,Not Listed,0.0
HSL 1396 Munkkivuori,19043,Bus Stop,60.206154,24.87972,0.9329335316177423,Not Listed,0.0
Ravintola Freeesh,13276,Sushi Restaurant,60.207125,24.880118,0.2831533686796845,Affordable,0.0
Lulu Thai Restaurant,13352,Thai Restaurant,60.207778,24.88712,0.9633227725332988,Affordable,0.0
Talin perhepolku,16019,Hiking Trail,60.20819,24.878704,0.963880447433079,Not Listed,0.0
Ooster,13025,Wine Bar,60.171704,24.940469,0.9973571059097376,Affordable,5.8
Club Lounge,13013,Hotel Bar,60.179946,24.927046,0.98998609853873,Expensive,0.0
Kaupunginpuutarha,13065,Restaurant,60.186268,24.931543,0.9827929005560584,Not Listed,0.0
Kuntatalo,13065,Restaurant,60.183954,24.940686,0.994689965084702,Not Listed,0.0
Buongiorno Caffe,13034,Café,60.175087,24.919077,0.9488878830984094,Most Affordable,9.2
HSL 1280 Caloniuksenkatu,19043,Bus Stop,60.174416,24.918426,0.8826134747187379,Not Listed,0.0
Sagayoga,18028,Yoga Studio,60.174163,24.919412,0.1463775378249062,Not Listed,0.0
Sushi Forest,13276,Sushi Restaurant,60.171357,24.919894,0.9942939350834088,Affordable,0.0
Ravintola Töölö,13336,Scandinavian Restaurant,60.171672,24.923235,0.9847730505625244,Affordable,0.0
HSL 1163 Kauppakorkeakoulut,19043,Bus Stop,60.171121,24.926164,0.9693602094917884,Not Listed,0.0
Chicken Joint,13055,Fried Chicken Joint,60.169597,24.925311,0.9132775119617224,Most Affordable,0.0
Viptenders Oy,13065,Restaurant,60.171357,24.919894,0.0,Not Listed,0.0
MEREO / Vanhusten Palvelutaloyhdistys ry,13065,Restaurant,60.169467,24.924905,0.0,Not Listed,0.0
Ravintola Konnichiwa,13276,Sushi Restaurant,60.170143,24.928146,0.9825100219837062,Affordable,7.2
Gottland Deli & Cafe,13034,Café,60.192114,24.906795,0.0,Not Listed,0.0
Tarvaspään kahvilaravintola,13034,Café,60.206293,24.838071,0.9723599354660696,Most Affordable,6.7
Ravintola Muusan Krouvi,13003,Bar,60.207218,24.855928,0.9490980214664424,Affordable,6.2
Ravintola Factory Leppävaara,13049,Diner,60.210471,24.828668,0.9586844512929168,Most Affordable,5.4
Vermonpuiston koira-aitaus,16033,Dog Park,60.211206,24.834438,0.9909311247010482,Not Listed,0.0
Laajalahden Koirauimaranta,16033,Dog Park,60.2028,24.828553,0.1793711176385611,Not Listed,0.0
HSL E1972 Tarvaspääntie,19043,Bus Stop,60.211535,24.830532,0.9693905394776968,Not Listed,0.0
Talinhuipun palveluskoirien koulutuskenttä,16033,Dog Park,60.213393,24.847364,0.42492402689771114,Not Listed,0.0
HSL E1165 Majurinpolku,19043,Bus Stop,60.212615,24.831019,0.2893372498033739,Not Listed,0.0
HSL E1971 Majurinkulma,19043,Bus Stop,60.210366,24.826196,0.968122502046516,Not Listed,0.0
HSL 1433 Muusantori,19043,Bus Stop,60.207712,24.857924,0.9759149101254364,Not Listed,0.0
Pub Saluuna,13018,Pub,60.214957,24.840591,0.0380250718287025,Most Affordable,0.0
Pub Raviata,13018,Pub,60.214971,24.840801,0.08585736986565222,Most Affordable,0.0
Ravintola Monte,13065,Restaurant,60.214964,24.840696,0.8463267042262564,Not Listed,0.0
Grill & Café Keula,13145,Fast Food Restaurant,60.215041,24.840262,0.0526155278406446,Most Affordable,0.0
Tarvaspää Cafe Zoceria,13034,Café,60.206293,24.838071,0.0,Not Listed,0.0
Laajalahden kirjasto,12080,Library,60.204061,24.805539,0.9801126787692013,Not Listed,6.9
Leppävaaran pizzapalvelu,13034,Café,60.211323,24.823103,0.9908990224876004,Most Affordable,5.9
Laajalahden luontopolku,16019,Hiking Trail,60.201732,24.822513,0.8666666666666667,Not Listed,0.0
HSL E1201 Kurkijoentie,19043,Bus Stop,60.205306,24.815996,0.9594067510954879,Not Listed,0.0
HSL E1215 Laajalahdenristi,19043,Bus Stop,60.20605,24.815312,0.9678175310187638,Not Listed,0.0
Ettans stig,16019,Hiking Trail,60.205126,24.809887,0.3327073401711048,Not Listed,0.0
HSL E1202 Leppäsolmu,19043,Bus Stop,60.208227,24.812422,0.1686008250268856,Not Listed,0.0
HSL E1204 Raivaaja-aukio,19043,Bus Stop,60.204565,24.80933,0.3711657918813502,Not Listed,0.0
HSL E1157 Majurinkulma,19043,Bus Stop,60.210933,24.821094,0.9543506524774884,Not Listed,0.0
HSL E2502 Leppäsolmu,19043,Bus Stop,60.208989,24.812847,0.7342899792940724,Not Listed,0.0
Kurkijoenpuiston koira-aitaus,16033,Dog Park,60.207531,24.810561,0.461084091748126,Not Listed,0.0
HSL E1163 Leppäsolmu,19043,Bus Stop,60.208969,24.812532,0.9517985265084027,Not Listed,0.0
HSL E2054 Laajaranta,19043,Bus Stop,60.199734,24.810944,0.8783326110335308,Not Listed,0.0
Ravintola Stella Nova,13145,Fast Food Restaurant,60.210905,24.818189,0.3925940193576347,Not Listed,0.0
Bistro Nova,13027,Bistro,60.210905,24.818189,0.952873950658898,Not Listed,0.0
Pihka,13065,Restaurant,60.211239,24.817668,0.398019293430282,Not Listed,0.0
Rafla Bergans,13065,Restaurant,60.211822,24.823511,0.8482207348196659,Not Listed,0.0
HSL E1216 Turvesuontie,19043,Bus Stop,60.200754,24.808003,0.19967576764417902,Not Listed,0.0
HSL E1217 Turvesuontie,19043,Bus Stop,60.200754,24.808003,0.1156161217315934,Not Listed,0.0
HSL E1120 Linnoitustie,19043,Bus Stop,60.209755,24.811684,0.3083899134845347,Not Listed,0.0
HSL E1123 Harluntie,19043,Bus Stop,60.209147,24.810392,0.8012551965458018,Not Listed,0.0
HSL E1156 Everstinkatu,19043,Bus Stop,60.212226,24.82573,0.2331262740565962,Not Listed,0.0
Dylan Lepuski,13030,Buffet,60.211371,24.814794,0.9605303285661546,Not Listed,0.0
HSL E1122 Harluntie,19043,Bus Stop,60.209129,24.809285,0.2893533009100977,Not Listed,0.0
HSL E1159 Yhdyskunnanmäki,19043,Bus Stop,60.212176,24.817539,0.955714996549012,Not Listed,0.0
HSL E1155 Everstinkatu,19043,Bus Stop,60.212702,24.826617,0.9808349785717724,Not Listed,0.0
Dylan Lepuski,13065,Restaurant,60.210969,24.814267,0.0,Not Listed,0.0
Blue Jay Lounge & Bistro,13199,Indian Restaurant,60.204173,24.804837,0.9816054316945152,Affordable,0.0
HSL E2105 Raivaaja-aukio,19043,Bus Stop,60.20416,24.804627,0.5374713086467312,Not Listed,0.0
HSL E1208 Jääskentie,19043,Bus Stop,60.204177,24.799972,0.772475562190013,Not Listed,0.0
HSL E1212 Kirvunristi,19043,Bus Stop,60.201132,24.803246,0.8438066804706185,Not Listed,0.0
HSL E1221 Kirvunristi,19043,Bus Stop,60.200911,24.803065,0.3998009662766247,Not Listed,0.0
HSL E2110 Kaskenkaataja,19043,Bus Stop,60.206326,24.800734,0.8299064220478002,Not Listed,0.0
HSL E1210 Koivistontie,19043,Bus Stop,60.203689,24.798084,0.9563249386045168,Not Listed,0.0
HSL E1209 Koivistontie,19043,Bus Stop,60.203689,24.798084,0.95823502030465,Not Listed,0.0
HSL E1211 Ilmeentie,19043,Bus Stop,60.201511,24.798489,0.3381647164571997,Not Listed,0.0
HSL E1222 Ilmeentie,19043,Bus Stop,60.2018,24.796441,0.6518514951605914,Not Listed,0.0
HSL E1177 Hirsalantie,19043,Bus Stop,60.209037,24.807023,0.906325741159853,Not Listed,0.0
HSL E1124 Ensontie,19043,Bus Stop,60.209037,24.807023,0.2564003788061186,Not Listed,0.0
Laajalahden luonnonsuojelualueen pitkospuut,16019,Hiking Trail,60.19852,24.808362,0.9725205052888396,Not Listed,0.0
HSL E1220 Ilmeentie,19043,Bus Stop,60.200977,24.795074,0.6654788847691049,Not Listed,0.0
HSL E1110 Ensontie,19043,Bus Stop,60.209897,24.80405,0.9004028827787676,Not Listed,0.0
HSL E1109 Masalantie,19043,Bus Stop,60.210223,24.800938,0.6699731946517712,Not Listed,0.0
Pappa pizza,13064,Pizzeria,60.210254,24.808813,0.915972456300862,Most Affordable,0.0
HSL E1125 Masalantie,19043,Bus Stop,60.210473,24.800745,0.6233286785123834,Not Listed,0.0
HSL E1334 Hirsalantie,19043,Bus Stop,60.209231,24.794466,0.6744354023209901,Not Listed,0.0
E1218,19043,Bus Stop,60.196484,24.806898,0.2095953515994927,Not Listed,0.0
HSL E2055 Muolaanpuisto,19043,Bus Stop,60.196714,24.800629,0.4627855090608497,Not Listed,0.0
HSL E2064 Muolaanpuisto,19043,Bus Stop,60.19663,24.800958,0.564998956678063,Not Listed,0.0
HSL E2503 Turvesuonristi,19043,Bus Stop,60.201198,24.789494,0.4931702540890194,Not Listed,0.0
HSL E1127 Pikkalankulma,19043,Bus Stop,60.211955,24.798479,0.7125246785765879,Not Listed,0.0
HSL E1126 Pikkalanristi,19043,Bus Stop,60.212205,24.798286,0.4054188536299578,Not Listed,0.0
Pohjanmaan Grilli,13145,Fast Food Restaurant,60.208036,24.78892,0.9920225999582672,Most Affordable,0.0
Exceldent Oy,15007,Dentist,60.199548,24.804732,0.0,Not Listed,0.0
Terveyspalvelu Heimonen Oy,15007,Dentist,60.210493,24.804338,0.0,Not Listed,0.0
KSJ Ravintolat Oy,13065,Restaurant,60.206455,24.792099,0.0,Not Listed,0.0
Mezza,13302,Mediterranean Restaurant,60.215372,24.811706,0.9848798574661722,Affordable,8.8
Pub YNWA,13018,Pub,60.213982,24.821999,0.9591499333879071,Most Affordable,0.0
HSL E1164 Majurinpolku,19043,Bus Stop,60.214233,24.827571,0.9899199049774482,Not Listed,0.0
HSL E1161 Yhdyskunnanmäki,19043,Bus Stop,60.213689,24.81987,0.7362000609942055,Not Listed,0.0
HSL E1118 Säteri,19043,Bus Stop,60.212513,24.81543,0.9722636875812588,Not Listed,0.0
"HSL E1162 Säteri, Laituri 2",19043,Bus Stop,60.213911,24.816772,0.9703696569878492,Not Listed,0.0
HSL E1166 Perkkaankuja,19043,Bus Stop,60.21675,24.825058,0.9623601547326688,Not Listed,0.0
Tastory Q4A,13030,Buffet,60.212742,24.812437,0.9752491934318872,Not Listed,0.0
HSL E1168 Komentajankatu,19043,Bus Stop,60.216954,24.820851,0.9658913982119067,Not Listed,0.0
HSL E1112 Säterinkatu,19043,Bus Stop,60.214256,24.811489,0.2564164299128424,Not Listed,0.0
Antell Alberga,13065,Restaurant,60.216738,24.815009,0.9597759265501355,Not Listed,0.0
Hsl E1174,19043,Bus Stop,60.213844,24.809959,0.0408661177188167,Not Listed,0.0
HSL E1114 Alberganesplanadi,19043,Bus Stop,60.213345,24.809552,0.7252050528883967,Not Listed,0.0
BAD Säteri 6,13065,Restaurant,60.213872,24.809585,0.9764209242227252,Not Listed,0.0
BAD Säteri 6,13065,Restaurant,60.213866,24.80948,0.9273205887545949,Not Listed,0.0
HSL E1170 Perkkaanportti,19043,Bus Stop,60.218451,24.818001,0.45275356735846933,Not Listed,0.0
HSL E1049 Puustellinmäki,19043,Bus Stop,60.219255,24.821541,0.4376655270380892,Not Listed,0.0
HSL E1113 Sokerilinnantie,19043,Bus Stop,60.217752,24.814447,0.438773053402032,Not Listed,0.0
"Burger King Espoo, Sello",13065,Restaurant,60.217103,24.81332,0.1986324457071315,Most Affordable,0.0
Subway,13039,Deli,60.213212,24.822263,0.0,Not Listed,0.0
Ravintola Mezza - Välimerellinen ravintola,13302,Mediterranean Restaurant,60.215324,24.811766,0.0,Not Listed,0.0
Benessere Cafe Ristorante,13236,Italian Restaurant,60.215372,24.811706,0.0,Not Listed,0.0
Subway,13039,Deli,60.217205,24.814099,0.0,Not Listed,0.0
Hammaslääkäri Anne Keinänen,15007,Dentist,60.217912,24.814478,0.0,Not Listed,0.0
Espoon kaupunki Sellon kirjasto,12080,Library,60.217506,24.809773,0.5779915509045316,Not Listed,8.0
Fuku Supreme,13263,Japanese Restaurant,60.217929,24.809821,0.9895667806295244,Affordable,6.9
William K. Sello,13006,Beer Bar,60.217964,24.809552,0.9980096627662476,Expensive,6.5
Hanko Aasia,13276,Sushi Restaurant,60.218087,24.810646,0.9752331423251631,Affordable,6.4
Ravintola Base,13065,Restaurant,60.217343,24.81133,0.9967897786552384,Affordable,6.0
Ravintola Lime Leaf,13032,"Cafe, Coffee, and Tea House",60.218251,24.808296,0.9900162116177912,Affordable,5.9
Il Gabbiano,13236,Italian Restaurant,60.218209,24.80846,0.9899520071908959,Affordable,5.4
Kung Food Panda,13102,Cantonese Restaurant,60.218795,24.813511,0.9678496332322113,Most Affordable,5.4
Mandarin Palace,13099,Chinese Restaurant,60.218087,24.810646,0.99144476011621,Affordable,4.8
Hesburger Sello,13145,Fast Food Restaurant,60.2183,24.811516,0.96813855315324,Affordable,4.7
HSL E1129 Ratsutori,19043,Bus Stop,60.217541,24.812783,0.6654949358758286,Not Listed,0.0
Nepal Palace,13199,Indian Restaurant,60.216838,24.810817,0.9942216015794288,Affordable,0.0
Fafa's,13144,Falafel Restaurant,60.217583,24.812619,0.0671578305324152,Most Affordable,0.0
Naughty BRGR,13031,Burger Joint,60.21744,24.81121,0.9954414856904384,Most Affordable,0.0
Kfc,13055,Fried Chicken Joint,60.218502,24.813868,0.9954093834769907,Most Affordable,0.0
HSL E1116 Leppävaara,19043,Bus Stop,60.218949,24.815923,0.9937240172709908,Not Listed,0.0
Chilango,13303,Mexican Restaurant,60.218717,24.813944,0.0242050689395033,Most Affordable,0.0
HSL E1117 Leppävaara,19043,Bus Stop,60.219279,24.816988,0.9910755846615624,Not Listed,0.0
Ruusulinnan Hammashoitola,15007,Dentist,60.21521,24.806704,0.9908187669539816,Not Listed,0.0
Memosha,13288,Kebab Restaurant,60.218808,24.81372,0.8419447520906568,Not Listed,0.0
Hsl Kuljettajatila,19042,Bus Station,60.218761,24.812986,0.2543137349320236,Not Listed,0.0
HSL E1037 Leppävaaran as. Laituri 23,19043,Bus Stop,60.218924,24.81143,0.9775766039068393,Not Listed,0.0
Hesburger Espoo Vermonportti,13032,"Cafe, Coffee, and Tea House",60.220471,24.838145,0.9780420860018297,Most Affordable,4.7
Theron Catering Kalkkipellontie,13065,Restaurant,60.219664,24.830425,0.8316559926806953,Not Listed,0.0
HSL E1133 Mäkkylä,19043,Bus Stop,60.220573,24.833158,0.6465225277282869,Not Listed,0.0
Postipuunmäki,16019,Hiking Trail,60.222407,24.823225,0.9658111426782875,Not Listed,0.0
HSL E1025 Leppävaaran as. Laituri 15,19043,Bus Stop,60.219255,24.812495,0.9648480762748592,Not Listed,0.0
"HSL E1010 Leppävaaran keskus, Laituri 31",19043,Bus Stop,60.219746,24.812798,0.9781223415354487,Not Listed,0.0
Sävelpolku,16019,Hiking Trail,60.223216,24.821104,0.4872955490281055,Not Listed,0.0
HSL Leppävaaran linja-autoterminaali,19042,Bus Station,60.219347,24.811478,0.995553843437505,Not Listed,0.0
HSL E1027 Leppävaaran as. Laituri 13,19043,Bus Stop,60.219347,24.811478,0.988764225293334,Not Listed,0.0
Loc Grilli,13145,Fast Food Restaurant,60.220543,24.812953,0.9881863854512768,Most Affordable,0.0
Taste of India,13199,Indian Restaurant,60.221007,24.81363,0.9956822522912956,Affordable,0.0
Kathmandu Palace,13194,Himalayan Restaurant,60.222311,24.813504,0.9869183480200961,Not Listed,8.7
HSL E1029 Leppävaaran as. Laituri 12,19043,Bus Stop,60.219355,24.810789,0.9950402080223432,Not Listed,0.0
chopCHOP,13072,Asian Restaurant,60.218097,24.809163,0.957063289513812,Affordable,0.0
HSL E1032 Leppävaaran as. Laituri 11,19043,Bus Stop,60.219384,24.810415,0.9957304056114668,Not Listed,0.0
Ravintola Mr. Sindbad,13309,Middle Eastern Restaurant,60.221007,24.81363,0.3883244249691016,Affordable,0.0
Ravintola Minttu Bistro,13065,Restaurant,60.221007,24.81363,0.4650487151089068,Not Listed,0.0
Leppävaaran hammaslääkäri,15007,Dentist,60.221111,24.813616,0.5848220734819666,Not Listed,0.0
Leppävaaran hammaslääkärikeskus Helmi Oy,15007,Dentist,60.220893,24.811847,0.2918572735590119,Not Listed,0.0
Pancho Villa,13303,Mexican Restaurant,60.218225,24.807876,0.9876085456092196,Most Affordable,0.0
Tung Hing,13099,Chinese Restaurant,60.221631,24.813544,0.9828574180189723,Most Affordable,0.0
Sizzle Station,13289,Korean Restaurant,60.218105,24.808475,0.9776729105471822,Affordable,0.0
HSL E1056 Gransinmäenportti,19043,Bus Stop,60.220049,24.804399,0.9743021781351824,Not Listed,0.0
Nokkalan Majakka,13034,Café,60.147951,24.755508,0.9960674788526667,Most Affordable,8.7
Café Merenneito,13034,Café,60.150944,24.756359,0.9897914961236576,Most Affordable,8.2
Gula Villan,13032,"Cafe, Coffee, and Tea House",60.141013,24.756997,0.3051231542965978,Expensive,7.0
Majakan Terassi,13026,BBQ Joint,60.148389,24.754972,0.9224731545240044,Affordable,0.0
Toten seinä,13073,Australian Restaurant,60.145856,24.752317,0.8850580247508065,Affordable,0.0
HSL E3113 Nokkalanniemi,19043,Bus Stop,60.149089,24.748703,0.9702091459206112,Not Listed,0.0
HSL E3112 Nokkalanniemi,19043,Bus Stop,60.148979,24.747821,0.9428420089565176,Not Listed,0.0
HSL E3129 Matinlahti,19043,Bus Stop,60.151804,24.75012,0.9692300284104588,Not Listed,0.0
HSL E3144 Nuottaniemi,19043,Bus Stop,60.147457,24.742916,0.9637405499109164,Not Listed,0.0
Nuottaniemen Koirakenttä,16033,Dog Park,60.148909,24.741818,0.1493234458515914,Not Listed,0.0
HSL E3108 Sepetlahdentie,19043,Bus Stop,60.153114,24.746825,0.4196080319738046,Not Listed,0.0
Jätemäki,16019,Hiking Trail,60.154262,24.758168,0.9591338822811832,Not Listed,0.0
Rantametsän koira-aitaus,16033,Dog Park,60.154557,24.759499,0.9583794802651644,Not Listed,0.0
HSL E3109 Sepetlahdentie,19043,Bus Stop,60.154057,24.7468,0.9749923757243062,Not Listed,0.0
Matinkylän pururata,16019,Hiking Trail,60.154619,24.759649,0.9491661450056982,Not Listed,0.0
Espoon Rantaraitti,16019,Hiking Trail,60.147736,24.739079,0.9887963275067817,Not Listed,0.0
HSL E3107 Akselinpolku,19043,Bus Stop,60.155296,24.744834,0.4617421871238021,Not Listed,0.0
Koukkupolku,16019,Hiking Trail,60.154877,24.765312,0.9879937721705911,Not Listed,0.0
Kurim,13068,American Restaurant,60.155808,24.745449,0.7697468740469655,Affordable,0.0
Vuorident Oy,15007,Dentist,60.151022,24.752655,0.0,Not Listed,0.0
Hammasanestesia ICE Oy,15007,Dentist,60.152302,24.757068,0.0,Not Listed,0.0
Rami's Coffee Oy,13032,"Cafe, Coffee, and Tea House",60.152267,24.757337,0.0,Not Listed,0.0
Iso-Vasikkasaaren kahvila,13034,Café,60.141013,24.756997,0.0,Not Listed,0.0
Hammashoitopalvelu Ojanperä Oy,15007,Dentist,60.146742,24.736686,0.0,Not Listed,0.0
HSL E1827 Trillakatu,19043,Bus Stop,60.217188,24.786759,0.9752812956453348,Not Listed,0.0
HSL E1013 Gransinmäki,19043,Bus Stop,60.221536,24.80631,0.9614612927561356,Not Listed,0.0
Espoon kaupunki Kilon terveysasema,15007,Dentist,60.218111,24.78642,0.986163946004077,Not Listed,0.0
HSL E1031 Läkkisepänkuja,19043,Bus Stop,60.221224,24.809633,0.2475883212147477,Not Listed,0.0
Kerhohuone,13016,Lounge,60.21681,24.78496,0.2418099227941766,Expensive,0.0
Ravintola Amar,13199,Indian Restaurant,60.221188,24.810218,0.9603537663921929,Affordable,0.0
HSL E3106 Akselinpolku,19043,Bus Stop,60.156294,24.744853,0.9717821543795444,Not Listed,0.0
kateW,13067,African Restaurant,60.156725,24.767115,0.6305356254313735,Affordable,0.0
HSL E3119 Nuottalahti,19043,Bus Stop,60.150258,24.736671,0.4950000802555336,Not Listed,0.0
HSL E3118 Nuottalahti,19043,Bus Stop,60.151333,24.736258,0.7587679170478805,Not Listed,0.0
Teidän Sushi,13276,Sushi Restaurant,60.22504,24.81186,0.9901125182581338,Affordable,7.7
Villa Pentry,13336,Scandinavian Restaurant,60.14519,24.736216,0.9826006003113916,Affordable,7.7
Praigs Närssiluola,13009,Cocktail Bar,60.151246,24.734899,0.521965939551532,Expensive,0.0
HSL E3121 Kalastajankuja,19043,Bus Stop,60.152785,24.727827,0.0682332546829103,Not Listed,0.0
Erikoishammasteknikko Markku Kari,15007,Dentist,60.222782,24.813492,0.672252451806552,Not Listed,0.0
Ravintola Villa Lilla,13065,Restaurant,60.222727,24.816727,0.9864528659251056,Not Listed,0.0
Orient Express,13356,Turkish Restaurant,60.16044,24.738314,0.9975120784578096,Affordable,6.7
O'Learys Iso Omena,13068,American Restaurant,60.159698,24.738207,0.9981220205133144,Affordable,6.0
HSL E3105 Anjankuja,19043,Bus Stop,60.157964,24.742247,0.3993996886085295,Not Listed,0.0
HSL E3116 Kala-Matti,19043,Bus Stop,60.157812,24.738258,0.1003675703439752,Not Listed,0.0
Hsl E3103,19043,Bus Stop,60.158403,24.740919,0.5191409447681418,Not Listed,0.0
HSL E3124 Matinniitty,19043,Bus Stop,60.159343,24.745749,0.2417457183672814,Not Listed,0.0
Freja,13336,Scandinavian Restaurant,60.159321,24.736412,0.9884432031588578,Affordable,0.0
Ravintola Freja,13065,Restaurant,60.159349,24.736039,0.6818028603072182,Not Listed,0.0
McGary’s,13388,Wings Joint,60.159856,24.739029,0.6814176337458467,Most Affordable,0.0
McGary's Wing Bar,13065,Restaurant,60.159975,24.738432,0.6737007866766943,Not Listed,0.0
Leili Pub,13018,Pub,60.16014,24.739359,0.9958909166787051,Most Affordable,0.0
"HSL E3147 Matinkylä , Laituri 2",19043,Bus Stop,60.160147,24.739463,0.076900852313767,Not Listed,0.0
"HSL E3149 Matinkylä , Laituri 4",19043,Bus Stop,60.160147,24.739463,0.6630872698672573,Not Listed,0.0
B4u Pub,13018,Pub,60.160094,24.737835,0.7992488082053257,Most Affordable,0.0
"HSL E3150 Matinkylä , Laituri 5",19043,Bus Stop,60.160252,24.738657,0.987672750036115,Not Listed,0.0
"HSL E3146 Matinkylä , Laituri 1",19043,Bus Stop,60.160375,24.739748,0.42193544244875686,Not Listed,0.0
"HSL E3151 Matinkylä , Laituri 6",19043,Bus Stop,60.160287,24.738388,0.22198680599027304,Not Listed,0.0
HSL E3125 Matinniitty,19043,Bus Stop,60.159615,24.748349,0.9541098858766311,Not Listed,0.0
Kung Food Panda,13099,Chinese Restaurant,60.160425,24.738897,0.9478660053610696,Most Affordable,0.0
Luckiefun's,13276,Sushi Restaurant,60.160494,24.739151,0.997720742845219,Affordable,0.0
HSL E3101 Matinkylä,19043,Bus Stop,60.16061,24.740138,0.955393974414536,Not Listed,0.0
HSL E3159 Matinkylä,19043,Bus Stop,60.160665,24.740183,0.9836920755686104,Not Listed,0.0
HSL E3137 Kalaonni,19043,Bus Stop,60.156372,24.726482,0.9542382947304217,Not Listed,0.0
Eat,13332,Salad Restaurant,60.160633,24.738868,0.6402625961060016,Most Affordable,0.0
HSL E3158 Matinkylä,19043,Bus Stop,60.160714,24.740123,0.9977046917384954,Not Listed,0.0
Tynnyripolku,16019,Hiking Trail,60.159956,24.734055,0.5129452175727517,Not Listed,0.0
Ravintola Kosi,13218,North Indian Restaurant,60.161115,24.740648,0.97736793951943,Not Listed,0.0
Rekan,13065,Restaurant,60.157987,24.740977,0.0,Not Listed,0.0
Top-Sport Iso Omena,13022,Sports Bar,60.159982,24.738536,0.0,Not Listed,0.0
Makaronitehdas Iso Omena,13065,Restaurant,60.160578,24.738823,0.0,Not Listed,0.0
Pizza Cartel Leppävaara,13288,Kebab Restaurant,60.224461,24.813473,0.9850885218535818,Not Listed,0.0
Näköalaravintola Haikaranpesä,13030,Buffet,60.161522,24.764973,0.9572077494743264,Affordable,7.9
Puosun Grilli,13145,Fast Food Restaurant,60.162199,24.739547,0.9716055922055826,Most Affordable,6.0
HSL E3132 Iirislahti,19043,Bus Stop,60.16096,24.755393,0.9579942537037928,Not Listed,0.0
E2337 Haukilahdenranta,19043,Bus Stop,60.158902,24.764228,0.1676538097301809,Not Listed,0.0
HSL E3134 Telamäentie,19043,Bus Stop,60.161629,24.760103,0.97163769441903,Not Listed,0.0
Mattliden Student Lounge,13016,Lounge,60.163389,24.750728,0.4882746665382578,Expensive,0.0
Denssisohva,13016,Lounge,60.163389,24.750728,0.4549686200863549,Expensive,0.0
The library,12031,College Library,60.163848,24.750506,0.1423733166401823,Not Listed,0.0
Mediateket,12031,College Library,60.163895,24.751238,0.0961461292756135,Not Listed,0.0
Hammaslääkäri Merikallio Minna,15007,Dentist,60.161469,24.74044,0.5127205020786183,Not Listed,0.0
HSL E3126 Nelikko,19043,Bus Stop,60.162003,24.740577,0.9631627100688591,Not Listed,0.0
Picnic,13334,Sandwich Spot,60.161749,24.739082,0.3930113481324537,Most Affordable,0.0
Champagne Bar,13025,Wine Bar,60.161135,24.73769,0.17522993210381851,Affordable,0.0
Pretty Boy Wingery,13065,Restaurant,60.161135,24.73769,0.9905458981396768,Not Listed,0.0
Deliberi,13065,Restaurant,60.161405,24.737811,0.9995345179050097,Not Listed,0.0
Momotoko,13272,Ramen Restaurant,60.161683,24.737244,0.9797595544212773,Not Listed,7.0
Hanko Sushi,13276,Sushi Restaurant,60.161599,24.737573,0.9526492351647647,Affordable,6.7
Decanter Wine Bar & Shop,13025,Wine Bar,60.162167,24.738232,0.1142517776600696,Affordable,6.2
Sports Academy Iso Omena,13022,Sports Bar,60.162917,24.737653,0.9913163512624196,Most Affordable,6.0
Burger King,13145,Fast Food Restaurant,60.161599,24.737573,0.9561804786440022,Most Affordable,5.7
Rosso,13236,Italian Restaurant,60.161599,24.737573,0.9927930530810101,Affordable,5.1
Rax Pizzabuffet,13030,Buffet,60.161529,24.737713,0.0289240943163031,Not Listed,0.0
Hammas Mehiläinen Hammaslääkärit Espoo Iso Omena,15007,Dentist,60.161599,24.737573,0.9841736087703248,Not Listed,0.0
Ravintola Factory,13065,Restaurant,60.161868,24.738485,0.9930498707885907,Not Listed,0.0
Kirjaston Lastenosasto,12080,Library,60.161868,24.738485,0.3033659170799826,Not Listed,0.0
Spaghetteria,13236,Italian Restaurant,60.161683,24.737244,0.945313879391984,Affordable,0.0
Vox - Ison Omenan Kirjaston Nuortentila,12080,Library,60.162056,24.738142,0.2274762844898155,Not Listed,0.0
Samba Kitchen,13276,Sushi Restaurant,60.161781,24.737125,0.0995971172212324,Affordable,0.0
Capella Bistro,13003,Bar,60.162559,24.739444,0.9884913564790292,Affordable,0.0
HSL E1148 Mestarinsilta,19043,Bus Stop,60.226383,24.825485,0.6870355210991798,Not Listed,0.0
HSL E3143 Kalastajamäki kp,19043,Bus Stop,60.157787,24.726443,0.0296945474390459,Not Listed,0.0
Mr. Döner,13288,Kebab Restaurant,60.162556,24.737756,0.8562141859681225,Not Listed,0.0
Kainan,13146,Filipino Restaurant,60.162563,24.737861,0.2075247588321215,Affordable,0.0
Pizza Hut Matinkylä,13064,Pizzeria,60.162581,24.738966,0.9883308454117912,Most Affordable,0.0
HSL E3111 Piispanaukio,19043,Bus Stop,60.162581,24.738966,0.7160880242692733,Not Listed,0.0
Stadin Chili,13145,Fast Food Restaurant,60.223296,24.810036,0.0743647774514052,Affordable,0.0
HSL E1012 Gransinmäki,19043,Bus Stop,60.222845,24.803803,0.9735477761191633,Not Listed,0.0
HSL E1018 Rautakiskonkuja,19043,Bus Stop,60.228858,24.816573,0.6646763294329144,Not Listed,0.0
HSL E1017 Rautakiskonkuja,19043,Bus Stop,60.228876,24.817682,0.2751801736729747,Not Listed,0.0
HSL E1009 Vallikuja,19043,Bus Stop,60.227773,24.820955,0.8012230943323542,Not Listed,0.0
Popomama,13106,Dim Sum Restaurant,60.161599,24.737573,0.9532752283269932,Affordable,7.8
Ravintola Aangan,13194,Himalayan Restaurant,60.160537,24.738195,0.9786359769506108,Not Listed,7.4
Subway,13039,Deli,60.160494,24.739151,0.8510457296030561,Most Affordable,7.1
Espoon kaupunginkirjasto Kirjasto Omena,12080,Library,60.160071,24.739104,0.9631306078554116,Not Listed,6.9
Makaronitehdas,13236,Italian Restaurant,60.161599,24.737573,0.2398837899873196,Affordable,6.6
Fafa's,13144,Falafel Restaurant,60.161564,24.737841,0.7532302852281665,Most Affordable,5.6
Fuku,13276,Sushi Restaurant,60.161599,24.737573,0.9758912377008396,Affordable,5.5
Pikkupuisto,16033,Dog Park,60.154697,24.728985,0.7037607743053883,Not Listed,0.0
HSL E3139 Tiistinniitty,19043,Bus Stop,60.160154,24.7249,0.9572719539012214,Not Listed,0.0
"HSL E3153 Matinkylä , Laituri 8",19043,Bus Stop,60.160287,24.738388,0.9494069116065552,Not Listed,0.0
"HSL E3148 Matinkylä , Laituri 3",19043,Bus Stop,60.160147,24.739463,0.7896823485979358,Not Listed,0.0
HSL E4429 Hyljekuja,19043,Bus Stop,60.156335,24.712878,0.5471661771079116,Not Listed,0.0
Boneless,13055,Fried Chicken Joint,60.161455,24.736959,0.8614147445466365,Most Affordable,0.0
Ravintola Alfa,13065,Restaurant,60.16211,24.72431,0.9685237797146112,Not Listed,0.0
Sushibar + Wine,13276,Sushi Restaurant,60.160603,24.740033,0.7344665414680343,Affordable,0.0
Persian Ravintola,13309,Middle Eastern Restaurant,60.221189,24.815668,0.9900483138312387,Affordable,5.8
HSL E1969 Mäkkyläntie,19043,Bus Stop,60.22654,24.82631,0.0746536973724338,Not Listed,0.0
Porvarillisen Työn Arkisto,12080,Library,60.219691,24.830845,0.3174106354633152,Not Listed,0.0
Hanen Grilli,13026,BBQ Joint,60.223555,24.836295,0.8371294200735141,Affordable,0.0
HSL E1962 Aseveljentie,19043,Bus Stop,60.228874,24.825038,0.9492142983258696,Not Listed,0.0
Topparoikan koirapuisto,16033,Dog Park,60.230402,24.817737,0.952617132951317,Not Listed,0.0
Van Form Oy,13065,Restaurant,60.221154,24.812658,0.0,Not Listed,0.0
McDonald's,13145,Fast Food Restaurant,60.162177,24.710689,0.997817049485562,Most Affordable,7.1
Curry Leaf,13072,Asian Restaurant,60.166411,24.734053,0.96059453299305,Affordable,6.4
Bauhaus,11076,Home Improvement Service,60.159873,24.711592,0.9978973050191812,Not Listed,6.4
HSL E3216 Piispantilankuja,19043,Bus Stop,60.162071,24.722891,0.9636763454840211,Not Listed,0.0
HSL E3211 Friisilä,19043,Bus Stop,60.162447,24.722205,0.6830548466316753,Not Listed,0.0
HSL E3213 / E3214 Friisilänkulma,19043,Bus Stop,60.162975,24.721446,0.9462127413685174,Not Listed,0.0
Hesburger,13031,Burger Joint,60.163417,24.722598,0.9890691963210864,Most Affordable,0.0
HSL E3270 Tähdenlennontie,19043,Bus Stop,60.163517,24.720895,0.806439704017592,Not Listed,0.0
HSL E3262 Friisinkalliontie,19043,Bus Stop,60.164097,24.725827,0.2286801174941012,Not Listed,0.0
HSL E3261 Kuitinmäenraitti,19043,Bus Stop,60.165504,24.729746,0.556523972327892,Not Listed,0.0
Oral Hammaslääkärit,15007,Dentist,60.162724,24.737099,0.54092229659235,Not Listed,0.0
Evolation Yoga Helsinki,18028,Yoga Studio,60.166325,24.731901,0.0625672140094059,Not Listed,0.0
HSL E3117 Piispansilta,19043,Bus Stop,60.162923,24.737758,0.9943179082197715,Not Listed,0.0
Itsudemo,13276,Sushi Restaurant,60.166379,24.732738,0.9751849890049918,Affordable,0.0
HSL E3233 Piispanristi,19043,Bus Stop,60.164667,24.736301,0.0539317185919969,Not Listed,0.0
HSL E3222 Kivitie,19043,Bus Stop,60.166788,24.717905,0.5233784369432273,Not Listed,0.0
JST Consulting Oy,13065,Restaurant,60.16791,24.754112,0.4745830725028491,Not Listed,0.0
O'Plaza restaurant,13065,Restaurant,60.163588,24.74157,0.9828253158055248,Not Listed,0.0
HSL E2357 Haukiverkko,19043,Bus Stop,60.158443,24.770994,0.968299064220478,Not Listed,0.0
Niittykummun Helmi,13049,Diner,60.167719,24.765858,0.8907561676377588,Most Affordable,0.0
Happy Friends,13065,Restaurant,60.167988,24.766771,0.9951686168761334,Not Listed,0.0
HSL E3110 Piispanaukio,19043,Bus Stop,60.162685,24.738952,0.9987480136755428,Not Listed,0.0
Hot Mama Oy,13032,"Cafe, Coffee, and Tea House",60.168785,24.760378,0.0,Not Listed,0.0
Thaitulip Oy,13065,Restaurant,60.162559,24.739444,0.0,Not Listed,0.0
Saresta Oy,13065,Restaurant,60.161957,24.739053,0.0,Not Listed,0.0
HSL E2205 Hanasaari,19043,Bus Stop,60.166479,24.841861,0.020288598898894,Not Listed,0.0
Hanaholmen Restaurant & Wine Bar,13354,Theme Restaurant,60.163796,24.835994,0.9348100409640606,Not Listed,0.0
Restaurant PLATS,13336,Scandinavian Restaurant,60.163838,24.835829,0.9372368399854648,Affordable,0.0
Hanasaari Bar,13013,Hotel Bar,60.163686,24.835903,0.9620730438376056,Expensive,0.0
Blägä,13031,Burger Joint,60.169025,24.83153,0.5874544549846712,Most Affordable,0.0
HSL E2310 Karhusaari,19043,Bus Stop,60.16836,24.826021,0.8474021283767516,Not Listed,0.0
ChopChop Bar,13049,Diner,60.170566,24.82852,0.1459045601194202,Most Affordable,0.0
HSL E2301 Karhusaari,19043,Bus Stop,60.168734,24.826129,0.9461324858348984,Not Listed,0.0
Keilaranta FG Restaurant,13049,Diner,60.171365,24.827882,0.9650406895555448,Most Affordable,0.0
Keilasatama,13065,Restaurant,60.172858,24.829897,0.9937561194844383,Not Listed,0.0
Ison Omenan Hammaslääkärit,15007,Dentist,60.162826,24.737877,0.2227733102197396,Not Listed,0.0
Lucy in the Sky,13072,Asian Restaurant,60.175339,24.830932,0.9920065488515432,Affordable,7.7
Ravintola Keilalahden Ranta,13030,Buffet,60.176478,24.833154,0.4024493988860532,Affordable,4.9
HSL E2037 Karhusaarensolmu,19043,Bus Stop,60.169912,24.824013,0.4376173737179178,Not Listed,0.0
HSL E2036 Karhusaarensolmu,19043,Bus Stop,60.169885,24.823594,0.789586041957593,Not Listed,0.0
Hsl E2022,19043,Bus Stop,60.17082,24.824259,0.0641241713616153,Not Listed,0.0
Date With Dylan,13065,Restaurant,60.174043,24.830369,0.799232757098602,Not Listed,0.0
HSL E2024 Keilaniemi,19043,Bus Stop,60.173748,24.826553,0.9691658239835635,Not Listed,0.0
Haiku Sushi Keilaniemi,13276,Sushi Restaurant,60.174559,24.8294,0.1656153191762572,Affordable,0.0
Ravintola Malacca,13299,Malay Restaurant,60.174614,24.829446,0.9907545625270865,Affordable,0.0
Sri Ravintola,13199,Indian Restaurant,60.174608,24.829341,0.9755862666730873,Affordable,0.0
HSL E2033 Keilaniemi,19043,Bus Stop,60.174953,24.829822,0.3859328100672541,Not Listed,0.0
Dylan & Friends Keilaniemi,13065,Restaurant,60.175075,24.830915,0.9610279128745928,Not Listed,0.0
HSL E2023 Keilaniemi,19043,Bus Stop,60.175042,24.827908,0.1447007271151346,Not Listed,0.0
HSL E2032 Keilasatama,19043,Bus Stop,60.175877,24.829485,0.5833774738768238,Not Listed,0.0
Ravintola,13065,Restaurant,60.175921,24.831011,0.658833726585448,Not Listed,0.0
"Kiinteistömaailma Espoo SeaSide, Keilaranta 1",11021,Business Center,60.175921,24.831011,0.9921831110255052,Not Listed,0.0
Kitchen 1649,13336,Scandinavian Restaurant,60.176196,24.829547,0.9905619492464005,Affordable,0.0
Curry Palace,13199,Indian Restaurant,60.176429,24.833213,0.9853132373477153,Affordable,0.0
Ravintola Keilalahti,13065,Restaurant,60.176436,24.833318,0.3743278599059405,Not Listed,0.0
