Name,Category ID,Category Name,Latitude,Longitude,Distance,Popularity,Price,Rating,Description
Ravintola Paulette,13148,French Restaurant,60.158526,24.945557,435,0.9815886460623303,2.0,9.1,
Kaffa Roastery,13034,Café,60.158463,24.934133,939,0.992038988749515,2.0,9.0,
Daddy Greens Pizzabar - Iso Roobertinkatu,13064,Pizzeria,60.16284,24.940647,984,0.9811279581016423,1.0,8.8,"Daddy Greens Pizzabar is a pizzeria in Töölö and Iso Roba, Helsinki. We specialize in a unique NYC-Neapolitan style pizza with chewy, crispy, tangy and charred crust."
Ravintola Skiffer,13064,Pizzeria,60.152901,24.946306,354,0.9677014019431269,2.0,8.7,
Ravintola Pastis,13148,French Restaurant,60.164127,24.947772,979,0.9820493340230182,2.0,8.6,Autenttinen maalaisranskalainen keittiö ja tunnelma sekä läsnäoleva ja yksilöllinen palvelu tekevät Kaartin kaupunginosassa sijaitsevasta Pastiksesta unohtumattoman kokemuksen. Pieni pala Pariisia Helsingin kiinnostavimmalla ravintolakadulla.
Restaurant Elm,13065,Restaurant,60.156974,24.952636,217,0.9895173283331178,,8.6,
Café Succès,13034,Café,60.159946,24.946425,548,0.9909963791542739,1.0,8.5,Leivonnaisistaan ja erityisesti korvapuusteistaan tunnettu kahvila ja leipomo Helsingin Ullanlinnassa Korkeavuorenkadulla.
BasBas Kulma,13065,Restaurant,60.158246,24.934388,935,0.9713646062330273,,8.4,
Kanniston Leipomo myymälä,13002,Bakery,60.159244,24.936898,855,0.984514418724945,1.0,8.4,
Mattolaituri,13025,Wine Bar,60.153817,24.95591,356,0.9713241950084055,4.0,8.2,
Boneless Ullanlinna,13055,Fried Chicken Joint,60.159167,24.94489,514,0.9737973619552567,1.0,8.2,
Pontus,13027,Bistro,60.159031,24.946071,466,0.9778708133971292,,8.2,Ullanlinnalainen korttelibistro ja viinibaari.
Ravintola Maxill,13148,French Restaurant,60.160412,24.94631,599,0.9716636492952282,2.0,8.1,"Ravintolamme. Vuonna 1992 perustettu Maxill tunnetaan ravintolana, jonka leppoisa ilmapiiri on sekä keittiön että uskollisen asiakas­kunnan ansiota. Lounas tarjotaan arkisin klo 11.30-16.00."
Punavuoren Ahven,13006,Beer Bar,60.160976,24.937724,931,0.9957568214147161,2.0,8.1,"Punavuoren Ahven on kaunis ja lämminhenkinen olutravintola Rööperin sydämessä. Ravintolassa on laaja olut- ja siiderivalikoima sekä 28 hengen kabinetti, jossa on myös ruokailumahdollisuus palaverien ja juhlien yhteydessä."
Ravintola,13034,Café,60.15308,24.952519,285,0.9830111211690159,2.0,8.0,"Tunnelmallinen ravintola Helsingin edustalla. Ravintola Uunisaari tarjoaa mitä parhaimmat puitteet juhliin, yritystilaisuuksiin, kokouksiin ja saunailtoihin. Vanhat punatiiliseinät luovat lämpimän ja juhlallisen tunnelman..."
Restaurant Manna,13289,Korean Restaurant,60.160486,24.939111,837,0.9480069184016553,2.0,8.0,
Forza,13064,Pizzeria,60.158477,24.933881,970,0.9847892150523729,1.0,8.0,
Ravintola NJK,13065,Restaurant,60.161257,24.964016,999,0.9458408767619294,,8.0,
Cafe Compass,13034,Café,60.155124,24.951613,78,0.980198499935342,1.0,7.9,
Sea Horse,13336,Scandinavian Restaurant,60.158641,24.946546,415,0.9807076813655761,2.0,7.8,Suomalaista ruokaa ja kulttuuria vuodesta 1934.
Kahvila-Suomi (Kamome),13034,Café,60.159571,24.938757,788,0.9727870813397129,2.0,7.6,"Kamome is a small restaurant of about 45 seats in the Design district of Helsinki, where we present a Japanese and Nordic mixture in food & style, so both culinary and in the interior. Original Japanese and traditional North European dishes and drinks, a simple pleasant decor and nice dishware."
Ravintola Primula,13064,Pizzeria,60.160484,24.941596,742,0.9822998836156731,1.0,7.6,"Skiffer Viiskulma on ketjun lippulaivaravintola missä yhdistyy Skiffer -konseptin kolme osa-aluetta: ruokaravintola Skiffer, sen yhteydessä Skiffer Navigation Lounge mikä on rento hengähdyspaikka sohvaryhmineen ja nojatuoleineen."
Ravintola Monal,13072,Asian Restaurant,60.163079,24.941937,970,0.9651736066209751,,7.5,
Goldfish,13009,Cocktail Bar,60.162534,24.946662,817,0.9789457519720678,3.0,7.5,
Café Ursula,13034,Café,60.155223,24.960745,577,0.9961770981507824,3.0,7.3,"Café Ursula on suosittu olohuone kaupunkilaisille ja turisteille. Rauhoittuminen kaupungin huumasta on mahdollista aivan keskustan tuntumassa. Tarjoilemme laajan valikoiman suolaisia ja makeita herkkuja, kotimaisia makuja tarjoavan lounaan, sunnuntaibrunssin sekä valikoiman kahveja ja teetä."
Café Carusel,13034,Café,60.153769,24.942543,465,0.996977240398293,2.0,7.1,"Talo meren rannalla. Carusel on koko perheen kahvila ja leipomo meren syleilyssä aivan Helsingin keskustan kupeessa. Vuodesta 1996 perheyrityksemme on yhdistänyt laadukkaita raaka-aineita, vihreitä arvoja ja kodikasta tunnelmaa."
Ravintola Saari,13336,Scandinavian Restaurant,60.152076,24.942346,574,0.936530130609078,3.0,6.9,
Old Skipper's,10032,Night Club,60.160484,24.941596,749,0.9731831113410061,3.0,6.9,
Kaivohuone,13003,Bar,60.157545,24.95589,390,0.9795438380964697,3.0,6.5,
Karaoke Nightclub Club Swengi,13015,Karaoke Bar,60.16347,24.943154,979,0.9862763481184533,2.0,5.5,
Merimies Pub,13010,Dive Bar,60.160586,24.938199,883,0.9534462692357429,1.0,5.0,
HSL 1177 Eira,19042,Bus Station,60.155865,24.942475,435,0.9887010215957585,,,
Ravintola HSS Paviljong,13065,Restaurant,60.151297,24.948369,468,0.9565660157765421,,,
Colas Pizzeria,13064,Pizzeria,60.157401,24.941848,517,0.3587546877020561,1.0,,
Kaivopuiston Hammaslääkäriasema Oy,15007,Dentist,60.160546,24.955174,632,0.9504396741238846,,,
Kasarmin Kilta ry,11130,Office Building,60.161767,24.947822,720,0.980796586059744,,,
Viiskulma,13006,Beer Bar,60.160689,24.942361,733,0.9846679813785076,,,
Momo Punavuori,13137,Dumpling Restaurant,60.160032,24.939921,755,0.5833279451700505,1.0,,
Momo House,13137,Dumpling Restaurant,60.159907,24.939928,761,0.9683903401008664,1.0,,
Eppu’s Cheesesteaks,13334,Sandwich Spot,60.160529,24.940638,781,0.9781375274796328,1.0,,
Via Tribunali,13064,Pizzeria,60.159192,24.93775,811,0.9714858399068925,1.0,,
Georgian Kitchen,13098,Caucasian Restaurant,60.16043,24.939065,835,0.9738539376697272,,,
Fredan Murkina,10000,Arts and Entertainment,60.161528,24.940663,864,0.31051176774860983,1.0,,
Paviljonki,13065,Restaurant,60.164079,24.949523,965,0.4095111858269753,,,
Fly AF Bar,13011,Gay Bar,60.16313785174027,24.941856265068054,978,0.960857687831372,2.0,,
Nisu-Aitta Oy,13065,Restaurant,60.157503,24.956055,394,,,,
Oy Despilio Ltd,13065,Restaurant,60.159562,24.947005,497,,,,
Rikhardinkadun kirjasto,12080,Library,60.166242,24.946327,802,0.9814512478986164,,9.2,Rikhardinkadun kirjasto on osa Helsingin kaupunginkirjastoa ja HelMet-kirjastoa.
Johan & Nyström OY,13034,Café,60.168948,24.960192,909,0.9867370360791413,3.0,9.1,
Ravintola Paulette,13148,French Restaurant,60.158526,24.945557,654,0.9815886460623303,2.0,9.1,
Pompier ESPA,13148,French Restaurant,60.166947,24.949194,781,0.9934048881417302,3.0,9.0,
Majakkalaiva Relandersgrund,13003,Bar,60.169397,24.958969,944,0.9775717703349283,,8.8,
Ravintola Olo,13311,Molecular Gastronomy Restaurant,60.168252,24.954943,809,0.9911176128281391,3.0,8.7,Olo is a modern Nordic gourmet cuisine restaurant at the heart of Helsinki.
Allas Sea Pool,13065,Restaurant,60.167131,24.958001,687,0.9989897193844562,,8.6,"Allas Sea Pool brings pools, saunas, restaurant, wellness and culture services for the travellers and citizens of Helsinki by the sea in the heart of Finland's capital. Terrace is open now, pools and saunas open in August."
Ravintola Pastis,13148,French Restaurant,60.164127,24.947772,585,0.9820493340230182,2.0,8.6,Autenttinen maalaisranskalainen keittiö ja tunnelma sekä läsnäoleva ja yksilöllinen palvelu tekevät Kaartin kaupunginosassa sijaitsevasta Pastiksesta unohtumattoman kokemuksen. Pieni pala Pariisia Helsingin kiinnostavimmalla ravintolakadulla.
Restaurant Elm,13065,Restaurant,60.156974,24.952636,491,0.9895173283331178,,8.6,
Salutorget,13336,Scandinavian Restaurant,60.168006,24.951856,816,0.9924915944652787,3.0,8.6,Ravintola Salutorget on skandinaavinen bistro Brofeltin talossa Sarvikuonon korttelissa Helsingin sydämessä.
Pizzeria Via Tribunali,13064,Pizzeria,60.168472,24.951741,867,0.9889030777188672,2.0,8.5,
El Fant,13025,Wine Bar,60.16875,24.953661,873,0.9773050562524247,1.0,8.5,"Heavenly coffee, quality wines, mouthwatering breakfasts, high five lunches. And THE brunch."
Café Succès,13034,Café,60.159946,24.946425,558,0.9909963791542739,1.0,8.5,Leivonnaisistaan ja erityisesti korvapuusteistaan tunnettu kahvila ja leipomo Helsingin Ullanlinnassa Korkeavuorenkadulla.
Gaijin,13263,Japanese Restaurant,60.165979,24.942132,959,0.9872947109789215,3.0,8.4,"Upealla paikalla Bulevardin ja Yrjönkadun kulmassa sijaitsevassa ravintolassamme modernit maut yhdistyvät rohkeasti Japanin, Korean ja Pohjois-Kiinan perinteisiin aromeihin."
Robert's Coffee Jugend,13034,Café,60.168094,24.950734,846,0.9927825552825553,1.0,8.4,
Shelter,13139,Eastern European Restaurant,60.169033,24.959863,914,0.9689722617354196,,8.4,"Moderni eurooppalainen ravintola Helsingissä. Shelter tuo yhteen hyvän ruoan ja juoman ystävät Katajanokan rannassa sijaitsevan makasiinirakennuksen suojiin. Ravintolassamme uskomme käsityöhön, aitoon asiakaspalveluun ja yhdessä tekemiseen. Loose lips sink ships!..."
Ravintola Sipuli,13065,Restaurant,60.169001,24.961031,926,0.9710898099055993,,8.3,Vuodesta 2002 Ravintola Nokka on tarjoillut korkealaatuista ruokaa kotimaisia raaka-aineita vaalien.
Mattolaituri,13025,Wine Bar,60.153817,24.95591,798,0.9713241950084055,4.0,8.2,
Ravintola Kappeli,13034,Café,60.167332,24.950306,777,0.9982623173412647,2.0,8.2,"Esplanadin helmi – tarinaa jo vuodesta 1867. Kappelin vetovoimalla on pitkät perinteet. Espan puiston kauneus, lasiverannan avaruus, rakennuksen arvokas olemus ja moderni keittiö ovat valmiina tämän päivän asiakkaille. Kappelin salissa on tunnelmaa pariskunnille ja puitteet suuremmille seurueille."
Pontus,13027,Bistro,60.159031,24.946071,606,0.9778708133971292,,8.2,Ullanlinnalainen korttelibistro ja viinibaari.
Fazer Café,10000,Arts and Entertainment,60.168645,24.947804,971,0.9979147808095177,3.0,8.1,"Karl Fazer Café on modernin klassinen kahvila, jossa voit kokea makuelämyksellisen aamiaisen, lounaan tai kahvihetken. Karl Fazer Café on Kluuvikadulla, Helsingin sydämessä on ollut jo vuodesta 1891. Se on enemmän kuin kahvila; se on myös pyörryttävän ihana herkkukauppa..."
Krog Roba,13336,Scandinavian Restaurant,60.164579,24.947447,630,0.9711948790896159,2.0,8.1,
Bier-Bier,13006,Beer Bar,60.165645,24.944344,838,0.9941080434501487,,8.1,Beer bar with great atmosphere in the heart of Helsinki.
Black Door,13006,Beer Bar,60.164177,24.943535,789,0.995546683046683,2.0,8.0,"Tervetuloa englantilaisen pubikulttuurin helmeen. Meiltä löydät aina lämmintä pubitunnelmaa, sekä maittavia oluita. Life is too short to drink bad beer."
Lilla E,13009,Cocktail Bar,60.164345,24.947055,631,0.9810633001422475,3.0,8.0,"Lilla e. on konsepti, jossa tutut normit haastetaan ja jossa cocktailiin yhdistyy luovuus ja pohjoismainen positiivinen hulluus."
Ravintola NJK,13065,Restaurant,60.161257,24.964016,427,0.9458408767619294,,8.0,
Pub Ludvig,13018,Pub,60.165988,24.94562,809,0.9925158412000518,1.0,7.9,
Cafe Compass,13034,Café,60.155124,24.951613,702,0.980198499935342,1.0,7.9,
Istanbul Grilli,13356,Turkish Restaurant,60.163061,24.939137,976,0.9857752489331437,2.0,7.8,
Strindberg,13027,Bistro,60.167909,24.946105,952,0.9898891115996379,3.0,7.7,
Bardot,13027,Bistro,60.168216,24.94765,933,0.9817260442260443,,7.7,
Ristorante Vaelsa,13025,Wine Bar,60.168402,24.953971,832,0.984304280356912,2.0,7.7,"Taverna Vaelsa, Helsinki - Mangia bene, vivi meglio! Syö hyvin, niin voit paremmin!. Sydän Italiassa, koti HelsingissäVaelsan keittiö yhdistää lähiruokaa ja klassisia italialaisia herkkuja modernilla otteella. Mangia bene, vivi meglio! Syö hyvin, niin voit paremmin, on Paolan motto..."
Alexanderplats,13152,Brasserie,60.166511,24.944757,884,0.9749935342040605,,7.6,
Ravintola Primula,13064,Pizzeria,60.160484,24.941596,815,0.9822998836156731,1.0,7.6,"Skiffer Viiskulma on ketjun lippulaivaravintola missä yhdistyy Skiffer -konseptin kolme osa-aluetta: ruokaravintola Skiffer, sen yhteydessä Skiffer Navigation Lounge mikä on rento hengähdyspaikka sohvaryhmineen ja nojatuoleineen."
Ravintola Savotta,13336,Scandinavian Restaurant,60.168892,24.952584,900,0.9941807836544678,2.0,7.5,
Holiday Bar,13003,Bar,60.168948,24.960192,909,0.9515146126988232,2.0,7.4,
Bryggeri Helsinki,13006,Beer Bar,60.168104,24.951737,828,0.9885151299624984,3.0,7.4,
Ravintola Bronda,13139,Eastern European Restaurant,60.16687,24.94545,886,0.9801661709556446,3.0,7.4,"Brondassa matkaamme modernin brasserieruoan ääreen, keskelle Espanjan, Italian ja Ranskan makumaailmaa. Keittiömme taidonnäytteet lautasilla, Bar Brondan leikittelevät, käsityönä valmistetut cocktailit laseissa ja viikonloppuisin levyjä pyörittävät DJ:t tarjoavat elämyksellisiä hetkiä."
Block by Dylan,13030,Buffet,60.166818,24.952172,685,0.9833263287210655,,7.3,
Café Ursula,13034,Café,60.155223,24.960745,687,0.9961770981507824,3.0,7.3,"Café Ursula on suosittu olohuone kaupunkilaisille ja turisteille. Rauhoittuminen kaupungin huumasta on mahdollista aivan keskustan tuntumassa. Tarjoilemme laajan valikoiman suolaisia ja makeita herkkuja, kotimaisia makuja tarjoavan lounaan, sunnuntaibrunssin sekä valikoiman kahveja ja teetä."
The Cock,13003,Bar,60.165521,24.949913,611,0.9903659640501746,3.0,7.3,"Eatery, rotisserie ja baari. Hyvää ruokaa ja juomaa aamusta pitkälle yöhön. Rotisseriessa paistuu The Cockin kananpoika. Menussa on aina sesongin kasvisruokia, tuoreita ostereita ja hyvä pihvi. Baarista cocktaileja, käsityöläisoluita ja talon omia limonadeja. Alkuviinejä saat alakerrasta."
Sky Wheel Helsinki,10001,Amusement Park,60.166793,24.959315,664,0.9935584507952929,,7.3,Finland's biggest Ferris Wheel!
Dragon Phoenix,13102,Cantonese Restaurant,60.165874,24.952192,587,0.9531553084184663,1.0,7.3,
Version,13068,American Restaurant,60.164962,24.951044,527,0.9898082891503944,2.0,7.1,
The Riff,13003,Bar,60.164177,24.943535,787,0.9904144575197207,2.0,7.1,"Cold beer, fresh and professional cocktails, specialty coffees; a rock n' roll bar with no limits!"
Wallis,13015,Karaoke Bar,60.16901,24.960342,917,0.972027350316824,2.0,6.9,
Pjazza,10040,Jazz and Blues Venue,60.16564,24.941754,955,0.981006724427777,2.0,6.8,
Café Engel,13034,Café,60.168924,24.951416,921,0.9939383163067373,2.0,6.8,
Kaivohuone,13003,Bar,60.157545,24.95589,384,0.9795438380964697,3.0,6.5,
Sköne,13016,Lounge,60.168997,24.960133,913,0.9607526186473555,2.0,6.4,"Katajanokan uniikki, tyylikäs olohuone. Laadukkaita juomia joka lähtöön!"
Rikhardinkadun kirjasto,12080,Library,60.166242,24.946327,897,0.9814512478986164,,9.2,Rikhardinkadun kirjasto on osa Helsingin kaupunginkirjastoa ja HelMet-kirjastoa.
Ravintola Paulette,13148,French Restaurant,60.158526,24.945557,51,0.9815886460623303,2.0,9.1,
Kaffa Roastery,13034,Café,60.158463,24.934133,582,0.992038988749515,2.0,9.0,
Levant,13309,Middle Eastern Restaurant,60.164244,24.93623,825,0.9923865252812621,2.0,9.0,
Ravintola Pompier,13065,Restaurant,60.164831,24.933033,986,0.9862036079141342,2.0,8.9,
Birgitta Hernesaari,13034,Café,60.153736,24.931977,869,0.9942050303892409,2.0,8.8,
Ravintola Pastis,13148,French Restaurant,60.164127,24.947772,677,0.9820493340230182,2.0,8.6,Autenttinen maalaisranskalainen keittiö ja tunnelma sekä läsnäoleva ja yksilöllinen palvelu tekevät Kaartin kaupunginosassa sijaitsevasta Pastiksesta unohtumattoman kokemuksen. Pieni pala Pariisia Helsingin kiinnostavimmalla ravintolakadulla.
Restaurant Elm,13065,Restaurant,60.156974,24.952636,448,0.9895173283331178,,8.6,
Olutravintola Pikkulintu,13006,Beer Bar,60.165956,24.936742,972,0.9952314754946334,,8.5,
Café Succès,13034,Café,60.159946,24.946425,211,0.9909963791542739,1.0,8.5,Leivonnaisistaan ja erityisesti korvapuusteistaan tunnettu kahvila ja leipomo Helsingin Ullanlinnassa Korkeavuorenkadulla.
Gaijin,13263,Japanese Restaurant,60.165979,24.942132,877,0.9872947109789215,3.0,8.4,"Upealla paikalla Bulevardin ja Yrjönkadun kulmassa sijaitsevassa ravintolassamme modernit maut yhdistyvät rohkeasti Japanin, Korean ja Pohjois-Kiinan perinteisiin aromeihin."
The Wintergarden Bar,13013,Hotel Bar,60.1669,24.940899,991,0.989153627311522,3.0,8.4,
BasBas Kulma,13065,Restaurant,60.158246,24.934388,581,0.9713646062330273,,8.4,
Taqueria El Rey,13303,Mexican Restaurant,60.166308,24.937329,993,0.9844093495409285,1.0,8.4,
Mattolaituri,13025,Wine Bar,60.153817,24.95591,779,0.9713241950084055,4.0,8.2,
Pontus,13027,Bistro,60.159031,24.946071,112,0.9778708133971292,,8.2,Ullanlinnalainen korttelibistro ja viinibaari.
Krog Roba,13336,Scandinavian Restaurant,60.164579,24.947447,722,0.9711948790896159,2.0,8.1,
Bier-Bier,13006,Beer Bar,60.165645,24.944344,827,0.9941080434501487,,8.1,Beer bar with great atmosphere in the heart of Helsinki.
Punavuoren Ahven,13006,Beer Bar,60.160976,24.937724,502,0.9957568214147161,2.0,8.1,"Punavuoren Ahven on kaunis ja lämminhenkinen olutravintola Rööperin sydämessä. Ravintolassa on laaja olut- ja siiderivalikoima sekä 28 hengen kabinetti, jossa on myös ruokailumahdollisuus palaverien ja juhlien yhteydessä."
Black Door,13006,Beer Bar,60.164177,24.943535,668,0.995546683046683,2.0,8.0,"Tervetuloa englantilaisen pubikulttuurin helmeen. Meiltä löydät aina lämmintä pubitunnelmaa, sekä maittavia oluita. Life is too short to drink bad beer."
Lie Mi - Bulevardi,13379,Vietnamese Restaurant,60.163764,24.934444,846,0.9957406569248675,2.0,8.0,
Lilla E,13009,Cocktail Bar,60.164345,24.947055,693,0.9810633001422475,3.0,8.0,"Lilla e. on konsepti, jossa tutut normit haastetaan ja jossa cocktailiin yhdistyy luovuus ja pohjoismainen positiivinen hulluus."
Forza,13064,Pizzeria,60.158477,24.933881,610,0.9847892150523729,1.0,8.0,
Pub Ludvig,13018,Pub,60.165988,24.94562,866,0.9925158412000518,1.0,7.9,
Cafe Compass,13034,Café,60.155124,24.951613,504,0.980198499935342,1.0,7.9,
Istanbul Grilli,13356,Turkish Restaurant,60.163061,24.939137,627,0.9857752489331437,2.0,7.8,
Boothill,13010,Dive Bar,60.164733,24.933151,974,0.9926694038536144,2.0,7.8,
Room Bulevard,13011,Gay Bar,60.163896,24.936541,783,0.9757532652269494,2.0,7.7,
Boon Nam - Restaurant,13072,Asian Restaurant,60.1669,24.940899,991,0.9869067632225527,2.0,7.7,
Naughty Brgr,13031,Burger Joint,60.165784,24.936501,962,0.991392409155567,2.0,7.6,
Alexanderplats,13152,Brasserie,60.166511,24.944757,923,0.9749935342040605,,7.6,
Pamela,13360,Doner Restaurant,60.165229,24.940223,822,0.9845063364800207,,7.6,
Ravintola Primula,13064,Pizzeria,60.160484,24.941596,312,0.9822998836156731,1.0,7.6,"Skiffer Viiskulma on ketjun lippulaivaravintola missä yhdistyy Skiffer -konseptin kolme osa-aluetta: ruokaravintola Skiffer, sen yhteydessä Skiffer Navigation Lounge mikä on rento hengähdyspaikka sohvaryhmineen ja nojatuoleineen."
Ravintola Bronda,13139,Eastern European Restaurant,60.16687,24.94545,963,0.9801661709556446,3.0,7.4,"Brondassa matkaamme modernin brasserieruoan ääreen, keskelle Espanjan, Italian ja Ranskan makumaailmaa. Keittiömme taidonnäytteet lautasilla, Bar Brondan leikittelevät, käsityönä valmistetut cocktailit laseissa ja viikonloppuisin levyjä pyörittävät DJ:t tarjoavat elämyksellisiä hetkiä."
Café Ursula,13034,Café,60.155223,24.960745,936,0.9961770981507824,3.0,7.3,"Café Ursula on suosittu olohuone kaupunkilaisille ja turisteille. Rauhoittuminen kaupungin huumasta on mahdollista aivan keskustan tuntumassa. Tarjoilemme laajan valikoiman suolaisia ja makeita herkkuja, kotimaisia makuja tarjoavan lounaan, sunnuntaibrunssin sekä valikoiman kahveja ja teetä."
Bacco,13064,Pizzeria,60.164936,24.93471,936,0.9708311780680202,2.0,7.3,
The Cock,13003,Bar,60.165521,24.949913,853,0.9903659640501746,3.0,7.3,"Eatery, rotisserie ja baari. Hyvää ruokaa ja juomaa aamusta pitkälle yöhön. Rotisseriessa paistuu The Cockin kananpoika. Menussa on aina sesongin kasvisruokia, tuoreita ostereita ja hyvä pihvi. Baarista cocktaileja, käsityöläisoluita ja talon omia limonadeja. Alkuviinejä saat alakerrasta."
Dragon Phoenix,13102,Cantonese Restaurant,60.165874,24.952192,943,0.9531553084184663,1.0,7.3,
K-Market Lönkan Herkku,13039,Deli,60.164392,24.933567,930,0.9939706452864348,,7.3,
Café Ekberg,13034,Café,60.164759,24.937748,829,0.99589421957843,3.0,7.2,"Taitavat leipurimme, kondiittorimme ja kokkimme ovat hemmotelleet asiakkaitamme kotimaisilla ja kansainvälisillä herkuilla jo yli puolitoista vuosisataa. Aito ja lämminhenkinen asiakaspalvelu, laadukkaat raaka-aineet sekä ammattiylpeys ovat aina olleet perusarvojamme."
Salve,13336,Scandinavian Restaurant,60.16103,24.93021,890,0.990374046295099,2.0,7.2,"Yli satavuotias merimiesravintola, joka on itsessään nähtävyys. Salve tunnetaan hyvästä ruoastaan ja jäljittelemättömästä tunnelmastaan."
Haru,13276,Sushi Restaurant,60.164995,24.935654,911,0.9883615673089358,2.0,7.1,
Version,13068,American Restaurant,60.164962,24.951044,824,0.9898082891503944,2.0,7.1,
The Riff,13003,Bar,60.164177,24.943535,655,0.9904144575197207,2.0,7.1,"Cold beer, fresh and professional cocktails, specialty coffees; a rock n' roll bar with no limits!"
Café Carusel,13034,Café,60.153769,24.942543,509,0.996977240398293,2.0,7.1,"Talo meren rannalla. Carusel on koko perheen kahvila ja leipomo meren syleilyssä aivan Helsingin keskustan kupeessa. Vuodesta 1996 perheyrityksemme on yhdistänyt laadukkaita raaka-aineita, vihreitä arvoja ja kodikasta tunnelmaa."
Ravintola Bröd,13336,Scandinavian Restaurant,60.163889,24.936436,786,0.9840133195396353,2.0,7.0,
Ravintola Saari,13336,Scandinavian Restaurant,60.152076,24.942346,695,0.936530130609078,3.0,6.9,
Pjazza,10040,Jazz and Blues Venue,60.16564,24.941754,844,0.981006724427777,2.0,6.8,
Kaivohuone,13003,Bar,60.157545,24.95589,612,0.9795438380964697,3.0,6.5,
Tapahtumatalo Bank,13027,Bistro,60.166004,24.950906,928,0.9840456485193327,,5.8,
Apéro,13010,Dive Bar,60.164197,24.929628,768,0.9855246993404888,2.0,9.4,Viihtyisä ranskalaishenkinen kortteliravintola Kampissa. Laadukas valikoima viinejä myös laseittain.
Kaffa Roastery,13034,Café,60.158463,24.934133,505,0.992038988749515,2.0,9.0,
Gran Delicato,13034,Café,60.165208,24.932348,701,0.9918692616061037,2.0,9.0,
Levant,13309,Middle Eastern Restaurant,60.164244,24.93623,474,0.9923865252812621,2.0,9.0,
Pompier ESPA,13148,French Restaurant,60.166947,24.949194,796,0.9934048881417302,3.0,9.0,
Kaffecentralen,13034,Café,60.167698,24.932702,898,0.9952557222294064,2.0,8.9,
La Torrefazione,13034,Café,60.168764,24.943823,869,0.9890808871072029,2.0,8.8,
Birgitta Hernesaari,13034,Café,60.153736,24.931977,972,0.9942050303892409,2.0,8.8,
Thai Vegan Kitchen,13377,Vegan and Vegetarian Restaurant,60.166772,24.929654,928,0.9922814560972456,2.0,8.7,
St. George Bakery,13002,Bakery,60.167066,24.941035,675,0.990075003232898,1.0,8.7,
Ravintola Pastis,13148,French Restaurant,60.164127,24.947772,479,0.9820493340230182,2.0,8.6,Autenttinen maalaisranskalainen keittiö ja tunnelma sekä läsnäoleva ja yksilöllinen palvelu tekevät Kaartin kaupunginosassa sijaitsevasta Pastiksesta unohtumattoman kokemuksen. Pieni pala Pariisia Helsingin kiinnostavimmalla ravintolakadulla.
Restaurant Elm,13065,Restaurant,60.156974,24.952636,747,0.9895173283331178,,8.6,
Salutorget,13336,Scandinavian Restaurant,60.168006,24.951856,956,0.9924915944652787,3.0,8.6,Ravintola Salutorget on skandinaavinen bistro Brofeltin talossa Sarvikuonon korttelissa Helsingin sydämessä.
Olutravintola Pikkulintu,13006,Beer Bar,60.165956,24.936742,617,0.9952314754946334,,8.5,
Pizzeria Via Tribunali,13064,Pizzeria,60.168472,24.951741,995,0.9889030777188672,2.0,8.5,
Gaijin,13263,Japanese Restaurant,60.165979,24.942132,553,0.9872947109789215,3.0,8.4,"Upealla paikalla Bulevardin ja Yrjönkadun kulmassa sijaitsevassa ravintolassamme modernit maut yhdistyvät rohkeasti Japanin, Korean ja Pohjois-Kiinan perinteisiin aromeihin."
Ravintola Story,13065,Restaurant,60.166226,24.95278,838,0.9948273632484159,,8.4,"Cafe-restaurant Story is the gem of the Old Market Hall in Helsinki. It offers straightforward market hall food, enjoying hte ingredients found at the market hall and the market square."
The Wintergarden Bar,13013,Hotel Bar,60.1669,24.940899,657,0.989153627311522,3.0,8.4,
Robert's Coffee Jugend,13034,Café,60.168094,24.950734,930,0.9927825552825553,1.0,8.4,
Ravintola Kappeli,13034,Café,60.167332,24.950306,846,0.9982623173412647,2.0,8.2,"Esplanadin helmi – tarinaa jo vuodesta 1867. Kappelin vetovoimalla on pitkät perinteet. Espan puiston kauneus, lasiverannan avaruus, rakennuksen arvokas olemus ja moderni keittiö ovat valmiina tämän päivän asiakkaille. Kappelin salissa on tunnelmaa pariskunnille ja puitteet suuremmille seurueille."
Fazer Café,10000,Arts and Entertainment,60.168645,24.947804,910,0.9979147808095177,3.0,8.1,"Karl Fazer Café on modernin klassinen kahvila, jossa voit kokea makuelämyksellisen aamiaisen, lounaan tai kahvihetken. Karl Fazer Café on Kluuvikadulla, Helsingin sydämessä on ollut jo vuodesta 1891. Se on enemmän kuin kahvila; se on myös pyörryttävän ihana herkkukauppa..."
Bier-Bier,13006,Beer Bar,60.165645,24.944344,535,0.9941080434501487,,8.1,Beer bar with great atmosphere in the heart of Helsinki.
Black Door,13006,Beer Bar,60.164177,24.943535,365,0.995546683046683,2.0,8.0,"Tervetuloa englantilaisen pubikulttuurin helmeen. Meiltä löydät aina lämmintä pubitunnelmaa, sekä maittavia oluita. Life is too short to drink bad beer."
Lie Mi - Bulevardi,13379,Vietnamese Restaurant,60.163764,24.934444,509,0.9957406569248675,2.0,8.0,
The Plaza - Wine & Craft Beer,13025,Wine Bar,60.1691,24.934947,976,0.9981976593818699,2.0,7.9,
Pub Peräkammari,13006,Beer Bar,60.167731,24.937404,786,0.9889919824130351,,7.9,
Cafe Compass,13034,Café,60.155124,24.951613,848,0.980198499935342,1.0,7.9,
Ateljee Bar,13013,Hotel Bar,60.167947,24.939173,785,0.9915217250743567,3.0,7.8,"Climb the hotel's spiral staircase to Ateljee Bar at the top of the city (70 m high). It is hard to say what the major attraction is: is it the iced Mojitos, the works of young artists or the magnificent views over Helsinki?"
SalamaNation,13006,Beer Bar,60.167384,24.935229,797,0.996468058968059,,7.8,"We are SalamaNation, a bar that focuses on craft beer. We have 20 taps and good selection of cans & bottles. We will have also your favourite beer cocktails and of course wines."
Street Pride,13011,Gay Bar,60.16655028686842,24.930920898914337,861,0.9891617095564464,2.0,7.8,
Boothill,13010,Dive Bar,60.164733,24.933151,633,0.9926694038536144,2.0,7.8,
Bardot,13027,Bistro,60.168216,24.94765,864,0.9817260442260443,,7.7,
Boon Nam - Restaurant,13072,Asian Restaurant,60.1669,24.940899,657,0.9869067632225527,2.0,7.7,
Ravintola Merimakasiini,13338,Seafood Restaurant,60.160806,24.926646,838,0.9822190611664295,3.0,7.7,"Viihtyisä kala- ja äyriäisruokiin erikoistunut satamaravintola Hietalahdenrannassa!. Kaikki, jotka ovat menettäneet sydänmensä merelle ja merielämälle, nauttivat varmasti Merimakasiinin tunnelmasta."
Ravintola Kannas,13065,Restaurant,60.163728,24.924669,994,0.994528320186215,2.0,7.6,
Cafe Aalto,10000,Arts and Entertainment,60.167966,24.943665,780,0.9973409414198888,1.0,7.6,
Friends & Brgrs,13031,Burger Joint,60.169558,24.944774,965,0.9903497995603259,2.0,7.6,Serving great burgers since early 2014.
Burger King,13145,Fast Food Restaurant,60.169211,24.946777,953,0.9885312944523471,1.0,7.5,"Herkullinen ruoka on aina etusijalla. BURGER KING on vuonna 1954 perustettu, nyt maailman toiseksi suurin hampurilaisketju. Ravintolamme ovat tunnettuja korkealaatuisesta, maukkaasta ja edullisesta ruoasta."
Leijuva Lahna,13006,Beer Bar,60.166817,24.934565,760,0.9882726626147679,3.0,7.5,"Leijuva Lahna on klassinen, mutta samalla kepeä olutravintola. Ravintolassa on 74 asiakaspaikkaa, 18 henkilön kabinetti sekä kesäterassi. Lahnan tiskillä on vaikuttava 19 olut- ja siiderihanan rivistö. Olutvalikoima on painottunut belgialaisiin tuotteisiin."
Halikarnas,13030,Buffet,60.164972,24.926088,974,0.9906326781326781,2.0,7.4,
Bastard Burgers,13031,Burger Joint,60.169272,24.945236,938,0.9963144963144963,1.0,7.4,
Bryggeri Helsinki,13006,Beer Bar,60.168104,24.951737,961,0.9885151299624984,3.0,7.4,
The Cock,13003,Bar,60.165521,24.949913,667,0.9903659640501746,3.0,7.3,"Eatery, rotisserie ja baari. Hyvää ruokaa ja juomaa aamusta pitkälle yöhön. Rotisseriessa paistuu The Cockin kananpoika. Menussa on aina sesongin kasvisruokia, tuoreita ostereita ja hyvä pihvi. Baarista cocktaileja, käsityöläisoluita ja talon omia limonadeja. Alkuviinejä saat alakerrasta."
Eerikin Pippuri,13145,Fast Food Restaurant,60.166621,24.933111,788,0.9941969481443166,2.0,7.3,Kebab
K-Market Lönkan Herkku,13039,Deli,60.164392,24.933567,590,0.9939706452864348,,7.3,
Café Ekberg,13034,Café,60.164759,24.937748,474,0.99589421957843,3.0,7.2,"Taitavat leipurimme, kondiittorimme ja kokkimme ovat hemmotelleet asiakkaitamme kotimaisilla ja kansainvälisillä herkuilla jo yli puolitoista vuosisataa. Aito ja lämminhenkinen asiakaspalvelu, laadukkaat raaka-aineet sekä ammattiylpeys ovat aina olleet perusarvojamme."
Version,13068,American Restaurant,60.164962,24.951044,674,0.9898082891503944,2.0,7.1,
The Riff,13003,Bar,60.164177,24.943535,350,0.9904144575197207,2.0,7.1,"Cold beer, fresh and professional cocktails, specialty coffees; a rock n' roll bar with no limits!"
Café Carusel,13034,Café,60.153769,24.942543,804,0.996977240398293,2.0,7.1,"Talo meren rannalla. Carusel on koko perheen kahvila ja leipomo meren syleilyssä aivan Helsingin keskustan kupeessa. Vuodesta 1996 perheyrityksemme on yhdistänyt laadukkaita raaka-aineita, vihreitä arvoja ja kodikasta tunnelmaa."
Ravintola Bröd,13336,Scandinavian Restaurant,60.163889,24.936436,437,0.9840133195396353,2.0,7.0,
Apéro,13010,Dive Bar,60.164197,24.929628,223,0.9855246993404888,2.0,9.4,Viihtyisä ranskalaishenkinen kortteliravintola Kampissa. Laadukas valikoima viinejä myös laseittain.
Kaffa Roastery,13034,Café,60.158463,24.934133,499,0.992038988749515,2.0,9.0,
Gran Delicato,13034,Café,60.165208,24.932348,364,0.9918692616061037,2.0,9.0,
Levant,13309,Middle Eastern Restaurant,60.164244,24.93623,426,0.9923865252812621,2.0,9.0,
Kaffecentralen,13034,Café,60.167698,24.932702,633,0.9952557222294064,2.0,8.9,
Birgitta Hernesaari,13034,Café,60.153736,24.931977,948,0.9942050303892409,2.0,8.8,
Thai Vegan Kitchen,13377,Vegan and Vegetarian Restaurant,60.166772,24.929654,508,0.9922814560972456,2.0,8.7,
One Pint Pub,13006,Beer Bar,60.162716,24.920258,525,0.9980440967283073,2.0,8.7,"Mon-Thu 15-24 (at least), Fri 13-02 (sharp), Sat 13-02 (sharp), Sun 13-24 (at least)."
St. George Bakery,13002,Bakery,60.167066,24.941035,827,0.990075003232898,1.0,8.7,
Pueblo Bar y Taqueria,13303,Mexican Restaurant,60.165336,24.92937,348,0.98208974524764,2.0,8.6,"A great place to hang out, eat some wonderful Mexican food with Mexican & Latin American coctails. Great staff, great athmosphere and also hosting some really nice events."
Olutravintola Pikkulintu,13006,Beer Bar,60.165956,24.936742,570,0.9952314754946334,,8.5,
Gaijin,13263,Japanese Restaurant,60.165979,24.942132,805,0.9872947109789215,3.0,8.4,"Upealla paikalla Bulevardin ja Yrjönkadun kulmassa sijaitsevassa ravintolassamme modernit maut yhdistyvät rohkeasti Japanin, Korean ja Pohjois-Kiinan perinteisiin aromeihin."
The Wintergarden Bar,13013,Hotel Bar,60.1669,24.940899,809,0.989153627311522,3.0,8.4,
Bier-Bier,13006,Beer Bar,60.165645,24.944344,895,0.9941080434501487,,8.1,Beer bar with great atmosphere in the heart of Helsinki.
Black Door,13006,Beer Bar,60.164177,24.943535,795,0.995546683046683,2.0,8.0,"Tervetuloa englantilaisen pubikulttuurin helmeen. Meiltä löydät aina lämmintä pubitunnelmaa, sekä maittavia oluita. Life is too short to drink bad beer."
Lie Mi - Bulevardi,13379,Vietnamese Restaurant,60.163764,24.934444,314,0.9957406569248675,2.0,8.0,
Ruoholahden kanava,13065,Restaurant,60.161499,24.916774,718,0.9954820250872882,,8.0,"Ruoholahdenkanava on Helsingin kantakaupungin länsiosassa sijaitseva, 1990-luvun alussa rakennettu kanava, joka johtaa Hietalahdesta Ruoholahteen ja erottaa Jätkäsaaren mantereesta. Kanava kulkee länsi-itä-suunnassa."
Forza,13064,Pizzeria,60.158477,24.933881,473,0.9847892150523729,1.0,8.0,
Putte's Bar & Pizza,13003,Bar,60.167468,24.939078,782,0.9910691193585931,2.0,8.0,
Pub Ludvig,13018,Pub,60.165988,24.94562,975,0.9925158412000518,1.0,7.9,
The Plaza - Wine & Craft Beer,13025,Wine Bar,60.1691,24.934947,819,0.9981976593818699,2.0,7.9,
Pub Peräkammari,13006,Beer Bar,60.167731,24.937404,747,0.9889919824130351,,7.9,
Ateljee Bar,13013,Hotel Bar,60.167947,24.939173,825,0.9915217250743567,3.0,7.8,"Climb the hotel's spiral staircase to Ateljee Bar at the top of the city (70 m high). It is hard to say what the major attraction is: is it the iced Mojitos, the works of young artists or the magnificent views over Helsinki?"
SalamaNation,13006,Beer Bar,60.167384,24.935229,652,0.996468058968059,,7.8,"We are SalamaNation, a bar that focuses on craft beer. We have 20 taps and good selection of cans & bottles. We will have also your favourite beer cocktails and of course wines."
Street Pride,13011,Gay Bar,60.16655028686842,24.930920898914337,488,0.9891617095564464,2.0,7.8,
Boothill,13010,Dive Bar,60.164733,24.933151,340,0.9926694038536144,2.0,7.8,
Boon Nam - Restaurant,13072,Asian Restaurant,60.1669,24.940899,809,0.9869067632225527,2.0,7.7,
Ravintola Merimakasiini,13338,Seafood Restaurant,60.160806,24.926646,229,0.9822190611664295,3.0,7.7,"Viihtyisä kala- ja äyriäisruokiin erikoistunut satamaravintola Hietalahdenrannassa!. Kaikki, jotka ovat menettäneet sydänmensä merelle ja merielämälle, nauttivat varmasti Merimakasiinin tunnelmasta."
Ravintola Lasipalatsi,13032,"Cafe, Coffee, and Tea House",60.170032,24.936409,946,0.9894688348635717,,7.7,
Ravintola Kannas,13065,Restaurant,60.163728,24.924669,325,0.994528320186215,2.0,7.6,
Naughty Brgr,13031,Burger Joint,60.165784,24.936501,547,0.991392409155567,2.0,7.6,
Farang,13072,Asian Restaurant,60.170905,24.93275,981,0.9812491917755075,2.0,7.6,
Leijuva Lahna,13006,Beer Bar,60.166817,24.934565,579,0.9882726626147679,3.0,7.5,"Leijuva Lahna on klassinen, mutta samalla kepeä olutravintola. Ravintolassa on 74 asiakaspaikkaa, 18 henkilön kabinetti sekä kesäterassi. Lahnan tiskillä on vaikuttava 19 olut- ja siiderihanan rivistö. Olutvalikoima on painottunut belgialaisiin tuotteisiin."
Ravintola Mount Everest-Kamppi,13194,Himalayan Restaurant,60.167119,24.927652,558,0.9830434501487133,1.0,7.4,"We are humbly proud to serve the unique tastes from the Mountains of Nepal since 1999. Mr. Sharma being the first Nepalese to venture into the food and hospitality business since 1989, an authentic taste of Nepalese cuisine to invigorate your senses is guaranteed!"
Halikarnas,13030,Buffet,60.164972,24.926088,367,0.9906326781326781,2.0,7.4,
WineCellars,13025,Wine Bar,60.167451,24.93797,741,0.967388141730247,2.0,7.4,
Eerikin Pippuri,13145,Fast Food Restaurant,60.166621,24.933111,526,0.9941969481443166,2.0,7.3,Kebab
K-Market Lönkan Herkku,13039,Deli,60.164392,24.933567,324,0.9939706452864348,,7.3,
Café Ekberg,13034,Café,60.164759,24.937748,528,0.99589421957843,3.0,7.2,"Taitavat leipurimme, kondiittorimme ja kokkimme ovat hemmotelleet asiakkaitamme kotimaisilla ja kansainvälisillä herkuilla jo yli puolitoista vuosisataa. Aito ja lämminhenkinen asiakaspalvelu, laadukkaat raaka-aineet sekä ammattiylpeys ovat aina olleet perusarvojamme."
Teerenpeli Helsinki,13006,Beer Bar,60.170215,24.933477,913,0.9956275054959266,3.0,7.2,
Konttiravintola Morton,13031,Burger Joint,60.162805,24.922519,402,0.9922976205870943,1.0,7.2,"Breakfast: Tue-Fri from 8:00 to 11:00, Weekends from 8.00/9:00 to 14:00. Lunch: Tue-Fri 10:30 - 14:00"
Haru,13276,Sushi Restaurant,60.164995,24.935654,452,0.9883615673089358,2.0,7.1,
DIF Döner,13288,Kebab Restaurant,60.163256,24.916327,748,0.9932917367127894,,7.1,
The Riff,13003,Bar,60.164177,24.943535,786,0.9904144575197207,2.0,7.1,"Cold beer, fresh and professional cocktails, specialty coffees; a rock n' roll bar with no limits!"
Ravintola Bröd,13336,Scandinavian Restaurant,60.163889,24.936436,417,0.9840133195396353,2.0,7.0,
Sky Express,13064,Pizzeria,60.16828,24.935268,733,0.988967735678262,1.0,7.0,
Haiku,13276,Sushi Restaurant,60.169745,24.936871,927,0.989266778740463,2.0,6.9,
The Old Irish Pub,13010,Dive Bar,60.167879,24.940609,872,0.9970418983576879,,6.8,
Phở Việt - Vietnamese Kitchen,13379,Vietnamese Restaurant,60.167793,24.937554,758,0.988507047717574,2.0,6.7,
Itsudemo,13276,Sushi Restaurant,60.17058,24.934274,964,0.988159511185827,2.0,6.7,"Tarjoamme joka päivä edullisen sushibuffetin niin lounaalla kuin illallisellakin. Buffetissa on tarjolla kattava valikoima erilaisia susheja sekä Teppanyaki grilli. Meiltä löytyy lisäksi À la carte -lista, ja ruoka on myös mahdollista ottaa mukaan."
Apéro,13010,Dive Bar,60.164197,24.929628,545,0.9855246993404888,2.0,9.4,Viihtyisä ranskalaishenkinen kortteliravintola Kampissa. Laadukas valikoima viinejä myös laseittain.
Central Library Oodi (Keskustakirjasto Oodi),12080,Library,60.173705,24.938034,924,0.9997575326522695,,9.3,
Kaffa Roastery,13034,Café,60.158463,24.934133,815,0.992038988749515,2.0,9.0,
Gran Delicato,13034,Café,60.165208,24.932348,373,0.9918692616061037,2.0,9.0,
Pompier ESPA,13148,French Restaurant,60.166947,24.949194,599,0.9934048881417302,3.0,9.0,
Kaffecentralen,13034,Café,60.167698,24.932702,442,0.9952557222294064,2.0,8.9,
La Torrefazione,13034,Café,60.168764,24.943823,465,0.9890808871072029,2.0,8.8,
Thai Vegan Kitchen,13377,Vegan and Vegetarian Restaurant,60.166772,24.929654,547,0.9922814560972456,2.0,8.7,
St. George Bakery,13002,Bakery,60.167066,24.941035,223,0.990075003232898,1.0,8.7,
Juova Hanahuone,13006,Beer Bar,60.171119,24.947052,781,0.998868485710591,,8.6,
Salutorget,13336,Scandinavian Restaurant,60.168006,24.951856,766,0.9924915944652787,3.0,8.6,Ravintola Salutorget on skandinaavinen bistro Brofeltin talossa Sarvikuonon korttelissa Helsingin sydämessä.
Olutravintola Pikkulintu,13006,Beer Bar,60.165956,24.936742,149,0.9952314754946334,,8.5,
Pizzeria Via Tribunali,13064,Pizzeria,60.168472,24.951741,782,0.9889030777188672,2.0,8.5,
Ravintola Story,13065,Restaurant,60.166226,24.95278,762,0.9948273632484159,,8.4,"Cafe-restaurant Story is the gem of the Old Market Hall in Helsinki. It offers straightforward market hall food, enjoying hte ingredients found at the market hall and the market square."
The Wintergarden Bar,13013,Hotel Bar,60.1669,24.940899,203,0.989153627311522,3.0,8.4,
La Torrefazione,13034,Café,60.170754,24.936207,626,0.9975187508082245,1.0,8.4,
Robert's Coffee Jugend,13034,Café,60.168094,24.950734,714,0.9927825552825553,1.0,8.4,
Musiikkitalo,10037,Concert Hall,60.173516,24.934199,952,0.9988523212207423,,8.2,"Kaikille avoin konserttikeskus ja kohtauspaikka. Musiikkitalo on kaikille avoin konserttikeskus ja kohtauspaikka Helsingin keskustassa. 1704-paikkaisen, erityisesti akustiselle musiikille suunnitellun Konserttisalin lisäksi talossa on viisi pienempää salia, joilla kaikilla on erilainen, tarkoituk..."
Ravintola Kappeli,13034,Café,60.167332,24.950306,659,0.9982623173412647,2.0,8.2,"Esplanadin helmi – tarinaa jo vuodesta 1867. Kappelin vetovoimalla on pitkät perinteet. Espan puiston kauneus, lasiverannan avaruus, rakennuksen arvokas olemus ja moderni keittiö ovat valmiina tämän päivän asiakkaille. Kappelin salissa on tunnelmaa pariskunnille ja puitteet suuremmille seurueille."
Fazer Café,10000,Arts and Entertainment,60.168645,24.947804,605,0.9979147808095177,3.0,8.1,"Karl Fazer Café on modernin klassinen kahvila, jossa voit kokea makuelämyksellisen aamiaisen, lounaan tai kahvihetken. Karl Fazer Café on Kluuvikadulla, Helsingin sydämessä on ollut jo vuodesta 1891. Se on enemmän kuin kahvila; se on myös pyörryttävän ihana herkkukauppa..."
Bier-Bier,13006,Beer Bar,60.165645,24.944344,292,0.9941080434501487,,8.1,Beer bar with great atmosphere in the heart of Helsinki.
Black Door,13006,Beer Bar,60.164177,24.943535,275,0.995546683046683,2.0,8.0,"Tervetuloa englantilaisen pubikulttuurin helmeen. Meiltä löydät aina lämmintä pubitunnelmaa, sekä maittavia oluita. Life is too short to drink bad beer."
Lie Mi - Bulevardi,13379,Vietnamese Restaurant,60.163764,24.934444,308,0.9957406569248675,2.0,8.0,
The Plaza - Wine & Craft Beer,13025,Wine Bar,60.1691,24.934947,480,0.9981976593818699,2.0,7.9,
Pub Peräkammari,13006,Beer Bar,60.167731,24.937404,285,0.9889919824130351,,7.9,
Kaisla,13006,Beer Bar,60.172154,24.946808,851,0.9982865640760378,2.0,7.9,"Kaisaniemen metroaseman kupeessa Vilhonkadulla sijaitsevassa Kaislaan voit astua sisään joko Vilhonkadun tai Vuorikadun puolelta. Tulijalle aukeaa olutmaailma koko rikkaudessaan. Silmiin osuu Suomen uljain hanarivistö, josta täytetään tuopit 30:llä eurooppalaisella aatelioluella."
Ateljee Bar,13013,Hotel Bar,60.167947,24.939173,294,0.9915217250743567,3.0,7.8,"Climb the hotel's spiral staircase to Ateljee Bar at the top of the city (70 m high). It is hard to say what the major attraction is: is it the iced Mojitos, the works of young artists or the magnificent views over Helsinki?"
Junk y Vegan,13377,Vegan and Vegetarian Restaurant,60.172207,24.9376,771,0.9744035303245829,2.0,7.8,
SalamaNation,13006,Beer Bar,60.167384,24.935229,315,0.996468058968059,,7.8,"We are SalamaNation, a bar that focuses on craft beer. We have 20 taps and good selection of cans & bottles. We will have also your favourite beer cocktails and of course wines."
Street Pride,13011,Gay Bar,60.16655028686842,24.930920898914337,473,0.9891617095564464,2.0,7.8,
Boothill,13010,Dive Bar,60.164733,24.933151,334,0.9926694038536144,2.0,7.8,
Bardot,13027,Bistro,60.168216,24.94765,573,0.9817260442260443,,7.7,
Ristorante Vaelsa,13025,Wine Bar,60.168402,24.953971,891,0.984304280356912,2.0,7.7,"Taverna Vaelsa, Helsinki - Mangia bene, vivi meglio! Syö hyvin, niin voit paremmin!. Sydän Italiassa, koti HelsingissäVaelsan keittiö yhdistää lähiruokaa ja klassisia italialaisia herkkuja modernilla otteella. Mangia bene, vivi meglio! Syö hyvin, niin voit paremmin, on Paolan motto..."
Boon Nam - Restaurant,13072,Asian Restaurant,60.1669,24.940899,203,0.9869067632225527,2.0,7.7,
Ravintola Merimakasiini,13338,Seafood Restaurant,60.160806,24.926646,850,0.9822190611664295,3.0,7.7,"Viihtyisä kala- ja äyriäisruokiin erikoistunut satamaravintola Hietalahdenrannassa!. Kaikki, jotka ovat menettäneet sydänmensä merelle ja merielämälle, nauttivat varmasti Merimakasiinin tunnelmasta."
Ravintola Lasipalatsi,13032,"Cafe, Coffee, and Tea House",60.170032,24.936409,546,0.9894688348635717,,7.7,
Ravintola Kannas,13065,Restaurant,60.163728,24.924669,816,0.994528320186215,2.0,7.6,
Woolshed Bar & Kitchen,13003,Bar,60.173562,24.939111,915,0.9968802534592008,2.0,7.6,"Bar, Huge sunny terrace, Australian steaks, Premium Burgers, Craft beers, Craft ciders, Wine, Sparkling, Authentic unique experience, Live music, Open till late"
Cafe Aalto,10000,Arts and Entertainment,60.167966,24.943665,389,0.9973409414198888,1.0,7.6,
Leijuva Lahna,13006,Beer Bar,60.166817,24.934565,302,0.9882726626147679,3.0,7.5,"Leijuva Lahna on klassinen, mutta samalla kepeä olutravintola. Ravintolassa on 74 asiakaspaikkaa, 18 henkilön kabinetti sekä kesäterassi. Lahnan tiskillä on vaikuttava 19 olut- ja siiderihanan rivistö. Olutvalikoima on painottunut belgialaisiin tuotteisiin."
Halikarnas,13030,Buffet,60.164972,24.926088,720,0.9906326781326781,2.0,7.4,
Bastard Burgers,13031,Burger Joint,60.169272,24.945236,556,0.9963144963144963,1.0,7.4,
Bryggeri Helsinki,13006,Beer Bar,60.168104,24.951737,764,0.9885151299624984,3.0,7.4,
Bierhaus München,13006,Beer Bar,60.173562,24.939111,918,0.9958053148842623,,7.3,
The Cock,13003,Bar,60.165521,24.949913,595,0.9903659640501746,3.0,7.3,"Eatery, rotisserie ja baari. Hyvää ruokaa ja juomaa aamusta pitkälle yöhön. Rotisseriessa paistuu The Cockin kananpoika. Menussa on aina sesongin kasvisruokia, tuoreita ostereita ja hyvä pihvi. Baarista cocktaileja, käsityöläisoluita ja talon omia limonadeja. Alkuviinejä saat alakerrasta."
Eerikin Pippuri,13145,Fast Food Restaurant,60.166621,24.933111,362,0.9941969481443166,2.0,7.3,Kebab
K-Market Lönkan Herkku,13039,Deli,60.164392,24.933567,322,0.9939706452864348,,7.3,
Café Ekberg,13034,Café,60.164759,24.937748,95,0.99589421957843,3.0,7.2,"Taitavat leipurimme, kondiittorimme ja kokkimme ovat hemmotelleet asiakkaitamme kotimaisilla ja kansainvälisillä herkuilla jo yli puolitoista vuosisataa. Aito ja lämminhenkinen asiakaspalvelu, laadukkaat raaka-aineet sekä ammattiylpeys ovat aina olleet perusarvojamme."
Teerenpeli Helsinki,13006,Beer Bar,60.170215,24.933477,621,0.9956275054959266,3.0,7.2,
Konttiravintola Morton,13031,Burger Joint,60.162805,24.922519,957,0.9922976205870943,1.0,7.2,"Breakfast: Tue-Fri from 8:00 to 11:00, Weekends from 8.00/9:00 to 14:00. Lunch: Tue-Fri 10:30 - 14:00"
Apéro,13010,Dive Bar,60.164197,24.929628,872,0.9855246993404888,2.0,9.4,Viihtyisä ranskalaishenkinen kortteliravintola Kampissa. Laadukas valikoima viinejä myös laseittain.
Central Library Oodi (Keskustakirjasto Oodi),12080,Library,60.173705,24.938034,819,0.9997575326522695,,9.3,
Johan & Nyström OY,13034,Café,60.168948,24.960192,907,0.9867370360791413,3.0,9.1,
Gran Delicato,13034,Café,60.165208,24.932348,686,0.9918692616061037,2.0,9.0,
Pompier ESPA,13148,French Restaurant,60.166947,24.949194,278,0.9934048881417302,3.0,9.0,
Kaffecentralen,13034,Café,60.167698,24.932702,647,0.9952557222294064,2.0,8.9,
La Torrefazione,13034,Café,60.168764,24.943823,208,0.9890808871072029,2.0,8.8,
Thai Vegan Kitchen,13377,Vegan and Vegetarian Restaurant,60.166772,24.929654,809,0.9922814560972456,2.0,8.7,
St. George Bakery,13002,Bakery,60.167066,24.941035,181,0.990075003232898,1.0,8.7,
Allas Sea Pool,13065,Restaurant,60.167131,24.958001,757,0.9989897193844562,,8.6,"Allas Sea Pool brings pools, saunas, restaurant, wellness and culture services for the travellers and citizens of Helsinki by the sea in the heart of Finland's capital. Terrace is open now, pools and saunas open in August."
Juova Hanahuone,13006,Beer Bar,60.171119,24.947052,492,0.998868485710591,,8.6,
Salutorget,13336,Scandinavian Restaurant,60.168006,24.951856,435,0.9924915944652787,3.0,8.6,Ravintola Salutorget on skandinaavinen bistro Brofeltin talossa Sarvikuonon korttelissa Helsingin sydämessä.
Olutravintola Pikkulintu,13006,Beer Bar,60.165956,24.936742,430,0.9952314754946334,,8.5,
Pizzeria Via Tribunali,13064,Pizzeria,60.168472,24.951741,446,0.9889030777188672,2.0,8.5,
Ravintola Story,13065,Restaurant,60.166226,24.95278,474,0.9948273632484159,,8.4,"Cafe-restaurant Story is the gem of the Old Market Hall in Helsinki. It offers straightforward market hall food, enjoying hte ingredients found at the market hall and the market square."
The Wintergarden Bar,13013,Hotel Bar,60.1669,24.940899,188,0.989153627311522,3.0,8.4,
La Torrefazione,13034,Café,60.170754,24.936207,619,0.9975187508082245,1.0,8.4,
Robert's Coffee Jugend,13034,Café,60.168094,24.950734,379,0.9927825552825553,1.0,8.4,
Shelter,13139,Eastern European Restaurant,60.169033,24.959863,892,0.9689722617354196,,8.4,"Moderni eurooppalainen ravintola Helsingissä. Shelter tuo yhteen hyvän ruoan ja juoman ystävät Katajanokan rannassa sijaitsevan makasiinirakennuksen suojiin. Ravintolassamme uskomme käsityöhön, aitoon asiakaspalveluun ja yhdessä tekemiseen. Loose lips sink ships!..."
Ravintola Sipuli,13065,Restaurant,60.169001,24.961031,953,0.9710898099055993,,8.3,Vuodesta 2002 Ravintola Nokka on tarjoillut korkealaatuista ruokaa kotimaisia raaka-aineita vaalien.
Musiikkitalo,10037,Concert Hall,60.173516,24.934199,923,0.9988523212207423,,8.2,"Kaikille avoin konserttikeskus ja kohtauspaikka. Musiikkitalo on kaikille avoin konserttikeskus ja kohtauspaikka Helsingin keskustassa. 1704-paikkaisen, erityisesti akustiselle musiikille suunnitellun Konserttisalin lisäksi talossa on viisi pienempää salia, joilla kaikilla on erilainen, tarkoituk..."
Ravintola Kappeli,13034,Café,60.167332,24.950306,335,0.9982623173412647,2.0,8.2,"Esplanadin helmi – tarinaa jo vuodesta 1867. Kappelin vetovoimalla on pitkät perinteet. Espan puiston kauneus, lasiverannan avaruus, rakennuksen arvokas olemus ja moderni keittiö ovat valmiina tämän päivän asiakkaille. Kappelin salissa on tunnelmaa pariskunnille ja puitteet suuremmille seurueille."
Fazer Café,10000,Arts and Entertainment,60.168645,24.947804,271,0.9979147808095177,3.0,8.1,"Karl Fazer Café on modernin klassinen kahvila, jossa voit kokea makuelämyksellisen aamiaisen, lounaan tai kahvihetken. Karl Fazer Café on Kluuvikadulla, Helsingin sydämessä on ollut jo vuodesta 1891. Se on enemmän kuin kahvila; se on myös pyörryttävän ihana herkkukauppa..."
Bier-Bier,13006,Beer Bar,60.165645,24.944344,139,0.9941080434501487,,8.1,Beer bar with great atmosphere in the heart of Helsinki.
Black Door,13006,Beer Bar,60.164177,24.943535,305,0.995546683046683,2.0,8.0,"Tervetuloa englantilaisen pubikulttuurin helmeen. Meiltä löydät aina lämmintä pubitunnelmaa, sekä maittavia oluita. Life is too short to drink bad beer."
Lie Mi - Bulevardi,13379,Vietnamese Restaurant,60.163764,24.934444,646,0.9957406569248675,2.0,8.0,
The Plaza - Wine & Craft Beer,13025,Wine Bar,60.1691,24.934947,571,0.9981976593818699,2.0,7.9,
Pub Peräkammari,13006,Beer Bar,60.167731,24.937404,392,0.9889919824130351,,7.9,
Kaisla,13006,Beer Bar,60.172154,24.946808,579,0.9982865640760378,2.0,7.9,"Kaisaniemen metroaseman kupeessa Vilhonkadulla sijaitsevassa Kaislaan voit astua sisään joko Vilhonkadun tai Vuorikadun puolelta. Tulijalle aukeaa olutmaailma koko rikkaudessaan. Silmiin osuu Suomen uljain hanarivistö, josta täytetään tuopit 30:llä eurooppalaisella aatelioluella."
Ateljee Bar,13013,Hotel Bar,60.167947,24.939173,306,0.9915217250743567,3.0,7.8,"Climb the hotel's spiral staircase to Ateljee Bar at the top of the city (70 m high). It is hard to say what the major attraction is: is it the iced Mojitos, the works of young artists or the magnificent views over Helsinki?"
Junk y Vegan,13377,Vegan and Vegetarian Restaurant,60.172207,24.9376,696,0.9744035303245829,2.0,7.8,
SalamaNation,13006,Beer Bar,60.167384,24.935229,504,0.996468058968059,,7.8,"We are SalamaNation, a bar that focuses on craft beer. We have 20 taps and good selection of cans & bottles. We will have also your favourite beer cocktails and of course wines."
Street Pride,13011,Gay Bar,60.16655028686842,24.930920898914337,740,0.9891617095564464,2.0,7.8,
Boothill,13010,Dive Bar,60.164733,24.933151,661,0.9926694038536144,2.0,7.8,
Bardot,13027,Bistro,60.168216,24.94765,235,0.9817260442260443,,7.7,
Ristorante Vaelsa,13025,Wine Bar,60.168402,24.953971,560,0.984304280356912,2.0,7.7,"Taverna Vaelsa, Helsinki - Mangia bene, vivi meglio! Syö hyvin, niin voit paremmin!. Sydän Italiassa, koti HelsingissäVaelsan keittiö yhdistää lähiruokaa ja klassisia italialaisia herkkuja modernilla otteella. Mangia bene, vivi meglio! Syö hyvin, niin voit paremmin, on Paolan motto..."
Boon Nam - Restaurant,13072,Asian Restaurant,60.1669,24.940899,188,0.9869067632225527,2.0,7.7,
Ravintola Lasipalatsi,13032,"Cafe, Coffee, and Tea House",60.170032,24.936409,558,0.9894688348635717,,7.7,
Woolshed Bar & Kitchen,13003,Bar,60.173562,24.939111,791,0.9968802534592008,2.0,7.6,"Bar, Huge sunny terrace, Australian steaks, Premium Burgers, Craft beers, Craft ciders, Wine, Sparkling, Authentic unique experience, Live music, Open till late"
Cafe Aalto,10000,Arts and Entertainment,60.167966,24.943665,123,0.9973409414198888,1.0,7.6,
Leijuva Lahna,13006,Beer Bar,60.166817,24.934565,538,0.9882726626147679,3.0,7.5,"Leijuva Lahna on klassinen, mutta samalla kepeä olutravintola. Ravintolassa on 74 asiakaspaikkaa, 18 henkilön kabinetti sekä kesäterassi. Lahnan tiskillä on vaikuttava 19 olut- ja siiderihanan rivistö. Olutvalikoima on painottunut belgialaisiin tuotteisiin."
Bastard Burgers,13031,Burger Joint,60.169272,24.945236,268,0.9963144963144963,1.0,7.4,
Bryggeri Helsinki,13006,Beer Bar,60.168104,24.951737,432,0.9885151299624984,3.0,7.4,
Bierhaus München,13006,Beer Bar,60.173562,24.939111,793,0.9958053148842623,,7.3,
The Cock,13003,Bar,60.165521,24.949913,345,0.9903659640501746,3.0,7.3,"Eatery, rotisserie ja baari. Hyvää ruokaa ja juomaa aamusta pitkälle yöhön. Rotisseriessa paistuu The Cockin kananpoika. Menussa on aina sesongin kasvisruokia, tuoreita ostereita ja hyvä pihvi. Baarista cocktaileja, käsityöläisoluita ja talon omia limonadeja. Alkuviinejä saat alakerrasta."
Sky Wheel Helsinki,10001,Amusement Park,60.166793,24.959315,830,0.9935584507952929,,7.3,Finland's biggest Ferris Wheel!
Eerikin Pippuri,13145,Fast Food Restaurant,60.166621,24.933111,619,0.9941969481443166,2.0,7.3,Kebab
K-Market Lönkan Herkku,13039,Deli,60.164392,24.933567,655,0.9939706452864348,,7.3,
Café Ekberg,13034,Café,60.164759,24.937748,433,0.99589421957843,3.0,7.2,"Taitavat leipurimme, kondiittorimme ja kokkimme ovat hemmotelleet asiakkaitamme kotimaisilla ja kansainvälisillä herkuilla jo yli puolitoista vuosisataa. Aito ja lämminhenkinen asiakaspalvelu, laadukkaat raaka-aineet sekä ammattiylpeys ovat aina olleet perusarvojamme."
Teerenpeli Helsinki,13006,Beer Bar,60.170215,24.933477,694,0.9956275054959266,3.0,7.2,
Johan & Nyström OY,13034,Café,60.168948,24.960192,736,0.9867370360791413,3.0,9.1,
Gran Delicato,13034,Café,60.165208,24.932348,948,0.9918692616061037,2.0,9.0,
Pompier ESPA,13148,French Restaurant,60.166947,24.949194,235,0.9934048881417302,3.0,9.0,
Kaffecentralen,13034,Café,60.167698,24.932702,975,0.9952557222294064,2.0,8.9,
La Torrefazione,13034,Café,60.168764,24.943823,522,0.9890808871072029,2.0,8.8,
St. George Bakery,13002,Bakery,60.167066,24.941035,521,0.990075003232898,1.0,8.7,
Ravintola Olo,13311,Molecular Gastronomy Restaurant,60.168252,24.954943,470,0.9911176128281391,3.0,8.7,Olo is a modern Nordic gourmet cuisine restaurant at the heart of Helsinki.
Papu Cafe,13034,Café,60.173107,24.956149,972,0.9549980602612181,1.0,8.6,Hienostunut kahvielämys vastapaahdetusta kahvista suoraan mukiin. Suomalainen kahvila pienellä vivahteella vietnamilaisuutta.
Allas Sea Pool,13065,Restaurant,60.167131,24.958001,526,0.9989897193844562,,8.6,"Allas Sea Pool brings pools, saunas, restaurant, wellness and culture services for the travellers and citizens of Helsinki by the sea in the heart of Finland's capital. Terrace is open now, pools and saunas open in August."
Juova Hanahuone,13006,Beer Bar,60.171119,24.947052,693,0.998868485710591,,8.6,
Ravintola Pastis,13148,French Restaurant,60.164127,24.947772,136,0.9820493340230182,2.0,8.6,Autenttinen maalaisranskalainen keittiö ja tunnelma sekä läsnäoleva ja yksilöllinen palvelu tekevät Kaartin kaupunginosassa sijaitsevasta Pastiksesta unohtumattoman kokemuksen. Pieni pala Pariisia Helsingin kiinnostavimmalla ravintolakadulla.
Restaurant Elm,13065,Restaurant,60.156974,24.952636,908,0.9895173283331178,,8.6,
Salutorget,13336,Scandinavian Restaurant,60.168006,24.951856,358,0.9924915944652787,3.0,8.6,Ravintola Salutorget on skandinaavinen bistro Brofeltin talossa Sarvikuonon korttelissa Helsingin sydämessä.
Olutravintola Pikkulintu,13006,Beer Bar,60.165956,24.936742,713,0.9952314754946334,,8.5,
Pizzeria Via Tribunali,13064,Pizzeria,60.168472,24.951741,405,0.9889030777188672,2.0,8.5,
Ravintola Story,13065,Restaurant,60.166226,24.95278,225,0.9948273632484159,,8.4,"Cafe-restaurant Story is the gem of the Old Market Hall in Helsinki. It offers straightforward market hall food, enjoying hte ingredients found at the market hall and the market square."
The Wintergarden Bar,13013,Hotel Bar,60.1669,24.940899,520,0.989153627311522,3.0,8.4,
La Torrefazione,13034,Café,60.170754,24.936207,974,0.9975187508082245,1.0,8.4,
Robert's Coffee Jugend,13034,Café,60.168094,24.950734,350,0.9927825552825553,1.0,8.4,
Shelter,13139,Eastern European Restaurant,60.169033,24.959863,727,0.9689722617354196,,8.4,"Moderni eurooppalainen ravintola Helsingissä. Shelter tuo yhteen hyvän ruoan ja juoman ystävät Katajanokan rannassa sijaitsevan makasiinirakennuksen suojiin. Ravintolassamme uskomme käsityöhön, aitoon asiakaspalveluun ja yhdessä tekemiseen. Loose lips sink ships!..."
Ravintola Sipuli,13065,Restaurant,60.169001,24.961031,777,0.9710898099055993,,8.3,Vuodesta 2002 Ravintola Nokka on tarjoillut korkealaatuista ruokaa kotimaisia raaka-aineita vaalien.
Ravintola Kappeli,13034,Café,60.167332,24.950306,262,0.9982623173412647,2.0,8.2,"Esplanadin helmi – tarinaa jo vuodesta 1867. Kappelin vetovoimalla on pitkät perinteet. Espan puiston kauneus, lasiverannan avaruus, rakennuksen arvokas olemus ja moderni keittiö ovat valmiina tämän päivän asiakkaille. Kappelin salissa on tunnelmaa pariskunnille ja puitteet suuremmille seurueille."
Fazer Café,10000,Arts and Entertainment,60.168645,24.947804,415,0.9979147808095177,3.0,8.1,"Karl Fazer Café on modernin klassinen kahvila, jossa voit kokea makuelämyksellisen aamiaisen, lounaan tai kahvihetken. Karl Fazer Café on Kluuvikadulla, Helsingin sydämessä on ollut jo vuodesta 1891. Se on enemmän kuin kahvila; se on myös pyörryttävän ihana herkkukauppa..."
Bier-Bier,13006,Beer Bar,60.165645,24.944344,293,0.9941080434501487,,8.1,Beer bar with great atmosphere in the heart of Helsinki.
Black Door,13006,Beer Bar,60.164177,24.943535,342,0.995546683046683,2.0,8.0,"Tervetuloa englantilaisen pubikulttuurin helmeen. Meiltä löydät aina lämmintä pubitunnelmaa, sekä maittavia oluita. Life is too short to drink bad beer."
Lie Mi - Bulevardi,13379,Vietnamese Restaurant,60.163764,24.934444,843,0.9957406569248675,2.0,8.0,
Ravintola NJK,13065,Restaurant,60.161257,24.964016,903,0.9458408767619294,,8.0,
The Plaza - Wine & Craft Beer,13025,Wine Bar,60.1691,24.934947,924,0.9981976593818699,2.0,7.9,
Pub Peräkammari,13006,Beer Bar,60.167731,24.937404,734,0.9889919824130351,,7.9,
Kaisla,13006,Beer Bar,60.172154,24.946808,792,0.9982865640760378,2.0,7.9,"Kaisaniemen metroaseman kupeessa Vilhonkadulla sijaitsevassa Kaislaan voit astua sisään joko Vilhonkadun tai Vuorikadun puolelta. Tulijalle aukeaa olutmaailma koko rikkaudessaan. Silmiin osuu Suomen uljain hanarivistö, josta täytetään tuopit 30:llä eurooppalaisella aatelioluella."
Ateljee Bar,13013,Hotel Bar,60.167947,24.939173,658,0.9915217250743567,3.0,7.8,"Climb the hotel's spiral staircase to Ateljee Bar at the top of the city (70 m high). It is hard to say what the major attraction is: is it the iced Mojitos, the works of young artists or the magnificent views over Helsinki?"
SalamaNation,13006,Beer Bar,60.167384,24.935229,832,0.996468058968059,,7.8,"We are SalamaNation, a bar that focuses on craft beer. We have 20 taps and good selection of cans & bottles. We will have also your favourite beer cocktails and of course wines."
Boothill,13010,Dive Bar,60.164733,24.933151,904,0.9926694038536144,2.0,7.8,
Bardot,13027,Bistro,60.168216,24.94765,371,0.9817260442260443,,7.7,
Ristorante Vaelsa,13025,Wine Bar,60.168402,24.953971,451,0.984304280356912,2.0,7.7,"Taverna Vaelsa, Helsinki - Mangia bene, vivi meglio! Syö hyvin, niin voit paremmin!. Sydän Italiassa, koti HelsingissäVaelsan keittiö yhdistää lähiruokaa ja klassisia italialaisia herkkuja modernilla otteella. Mangia bene, vivi meglio! Syö hyvin, niin voit paremmin, on Paolan motto..."
Boon Nam - Restaurant,13072,Asian Restaurant,60.1669,24.940899,520,0.9869067632225527,2.0,7.7,
Ravintola Lasipalatsi,13032,"Cafe, Coffee, and Tea House",60.170032,24.936409,914,0.9894688348635717,,7.7,
Cafe Aalto,10000,Arts and Entertainment,60.167966,24.943665,461,0.9973409414198888,1.0,7.6,
Leijuva Lahna,13006,Beer Bar,60.166817,24.934565,850,0.9882726626147679,3.0,7.5,"Leijuva Lahna on klassinen, mutta samalla kepeä olutravintola. Ravintolassa on 74 asiakaspaikkaa, 18 henkilön kabinetti sekä kesäterassi. Lahnan tiskillä on vaikuttava 19 olut- ja siiderihanan rivistö. Olutvalikoima on painottunut belgialaisiin tuotteisiin."
Bastard Burgers,13031,Burger Joint,60.169272,24.945236,530,0.9963144963144963,1.0,7.4,
Bryggeri Helsinki,13006,Beer Bar,60.168104,24.951737,366,0.9885151299624984,3.0,7.4,
The Cock,13003,Bar,60.165521,24.949913,56,0.9903659640501746,3.0,7.3,"Eatery, rotisserie ja baari. Hyvää ruokaa ja juomaa aamusta pitkälle yöhön. Rotisseriessa paistuu The Cockin kananpoika. Menussa on aina sesongin kasvisruokia, tuoreita ostereita ja hyvä pihvi. Baarista cocktaileja, käsityöläisoluita ja talon omia limonadeja. Alkuviinejä saat alakerrasta."
Sky Wheel Helsinki,10001,Amusement Park,60.166793,24.959315,578,0.9935584507952929,,7.3,Finland's biggest Ferris Wheel!
Eerikin Pippuri,13145,Fast Food Restaurant,60.166621,24.933111,923,0.9941969481443166,2.0,7.3,Kebab
K-Market Lönkan Herkku,13039,Deli,60.164392,24.933567,883,0.9939706452864348,,7.3,
Café Ekberg,13034,Café,60.164759,24.937748,650,0.99589421957843,3.0,7.2,"Taitavat leipurimme, kondiittorimme ja kokkimme ovat hemmotelleet asiakkaitamme kotimaisilla ja kansainvälisillä herkuilla jo yli puolitoista vuosisataa. Aito ja lämminhenkinen asiakaspalvelu, laadukkaat raaka-aineet sekä ammattiylpeys ovat aina olleet perusarvojamme."
Version,13068,American Restaurant,60.164962,24.951044,85,0.9898082891503944,2.0,7.1,
The Riff,13003,Bar,60.164177,24.943535,351,0.9904144575197207,2.0,7.1,"Cold beer, fresh and professional cocktails, specialty coffees; a rock n' roll bar with no limits!"
Ravintola Bröd,13336,Scandinavian Restaurant,60.163889,24.936436,732,0.9840133195396353,2.0,7.0,
Sky Express,13064,Pizzeria,60.16828,24.935268,867,0.988967735678262,1.0,7.0,
Central Library Oodi (Keskustakirjasto Oodi),12080,Library,60.173705,24.938034,983,0.9997575326522695,,9.3,
Johan & Nyström OY,13034,Café,60.168948,24.960192,533,0.9867370360791413,3.0,9.1,
Pompier ESPA,13148,French Restaurant,60.166947,24.949194,102,0.9934048881417302,3.0,9.0,
La Torrefazione,13034,Café,60.168764,24.943823,420,0.9890808871072029,2.0,8.8,
St. George Bakery,13002,Bakery,60.167066,24.941035,552,0.990075003232898,1.0,8.7,
Ravintola Olo,13311,Molecular Gastronomy Restaurant,60.168252,24.954943,233,0.9911176128281391,3.0,8.7,Olo is a modern Nordic gourmet cuisine restaurant at the heart of Helsinki.
Papu Cafe,13034,Café,60.173107,24.956149,684,0.9549980602612181,1.0,8.6,Hienostunut kahvielämys vastapaahdetusta kahvista suoraan mukiin. Suomalainen kahvila pienellä vivahteella vietnamilaisuutta.
Allas Sea Pool,13065,Restaurant,60.167131,24.958001,389,0.9989897193844562,,8.6,"Allas Sea Pool brings pools, saunas, restaurant, wellness and culture services for the travellers and citizens of Helsinki by the sea in the heart of Finland's capital. Terrace is open now, pools and saunas open in August."
Juova Hanahuone,13006,Beer Bar,60.171119,24.947052,457,0.998868485710591,,8.6,
Ravintola Pastis,13148,French Restaurant,60.164127,24.947772,415,0.9820493340230182,2.0,8.6,Autenttinen maalaisranskalainen keittiö ja tunnelma sekä läsnäoleva ja yksilöllinen palvelu tekevät Kaartin kaupunginosassa sijaitsevasta Pastiksesta unohtumattoman kokemuksen. Pieni pala Pariisia Helsingin kiinnostavimmalla ravintolakadulla.
Salutorget,13336,Scandinavian Restaurant,60.168006,24.951856,73,0.9924915944652787,3.0,8.6,Ravintola Salutorget on skandinaavinen bistro Brofeltin talossa Sarvikuonon korttelissa Helsingin sydämessä.
Olutravintola Pikkulintu,13006,Beer Bar,60.165956,24.936742,806,0.9952314754946334,,8.5,
Pizzeria Via Tribunali,13064,Pizzeria,60.168472,24.951741,115,0.9889030777188672,2.0,8.5,
Ravintola Story,13065,Restaurant,60.166226,24.95278,173,0.9948273632484159,,8.4,"Cafe-restaurant Story is the gem of the Old Market Hall in Helsinki. It offers straightforward market hall food, enjoying hte ingredients found at the market hall and the market square."
The Wintergarden Bar,13013,Hotel Bar,60.1669,24.940899,562,0.989153627311522,3.0,8.4,
La Torrefazione,13034,Café,60.170754,24.936207,894,0.9975187508082245,1.0,8.4,
Ravintola Kolme Kruunua,13336,Scandinavian Restaurant,60.174381,24.958888,880,0.9854681236260183,2.0,8.4,
Robert's Coffee Jugend,13034,Café,60.168094,24.950734,67,0.9927825552825553,1.0,8.4,
Shelter,13139,Eastern European Restaurant,60.169033,24.959863,518,0.9689722617354196,,8.4,"Moderni eurooppalainen ravintola Helsingissä. Shelter tuo yhteen hyvän ruoan ja juoman ystävät Katajanokan rannassa sijaitsevan makasiinirakennuksen suojiin. Ravintolassamme uskomme käsityöhön, aitoon asiakaspalveluun ja yhdessä tekemiseen. Loose lips sink ships!..."
Ravintola Sipuli,13065,Restaurant,60.169001,24.961031,579,0.9710898099055993,,8.3,Vuodesta 2002 Ravintola Nokka on tarjoillut korkealaatuista ruokaa kotimaisia raaka-aineita vaalien.
Ravintola Kappeli,13034,Café,60.167332,24.950306,42,0.9982623173412647,2.0,8.2,"Esplanadin helmi – tarinaa jo vuodesta 1867. Kappelin vetovoimalla on pitkät perinteet. Espan puiston kauneus, lasiverannan avaruus, rakennuksen arvokas olemus ja moderni keittiö ovat valmiina tämän päivän asiakkaille. Kappelin salissa on tunnelmaa pariskunnille ja puitteet suuremmille seurueille."
Fazer Café,10000,Arts and Entertainment,60.168645,24.947804,220,0.9979147808095177,3.0,8.1,"Karl Fazer Café on modernin klassinen kahvila, jossa voit kokea makuelämyksellisen aamiaisen, lounaan tai kahvihetken. Karl Fazer Café on Kluuvikadulla, Helsingin sydämessä on ollut jo vuodesta 1891. Se on enemmän kuin kahvila; se on myös pyörryttävän ihana herkkukauppa..."
Bier-Bier,13006,Beer Bar,60.165645,24.944344,421,0.9941080434501487,,8.1,Beer bar with great atmosphere in the heart of Helsinki.
Black Door,13006,Beer Bar,60.164177,24.943535,553,0.995546683046683,2.0,8.0,"Tervetuloa englantilaisen pubikulttuurin helmeen. Meiltä löydät aina lämmintä pubitunnelmaa, sekä maittavia oluita. Life is too short to drink bad beer."
Ravintola NJK,13065,Restaurant,60.161257,24.964016,999,0.9458408767619294,,8.0,
The Plaza - Wine & Craft Beer,13025,Wine Bar,60.1691,24.934947,905,0.9981976593818699,2.0,7.9,
Pub Peräkammari,13006,Beer Bar,60.167731,24.937404,752,0.9889919824130351,,7.9,
Kaisla,13006,Beer Bar,60.172154,24.946808,554,0.9982865640760378,2.0,7.9,"Kaisaniemen metroaseman kupeessa Vilhonkadulla sijaitsevassa Kaislaan voit astua sisään joko Vilhonkadun tai Vuorikadun puolelta. Tulijalle aukeaa olutmaailma koko rikkaudessaan. Silmiin osuu Suomen uljain hanarivistö, josta täytetään tuopit 30:llä eurooppalaisella aatelioluella."
Ateljee Bar,13013,Hotel Bar,60.167947,24.939173,655,0.9915217250743567,3.0,7.8,"Climb the hotel's spiral staircase to Ateljee Bar at the top of the city (70 m high). It is hard to say what the major attraction is: is it the iced Mojitos, the works of young artists or the magnificent views over Helsinki?"
Junk y Vegan,13377,Vegan and Vegetarian Restaurant,60.172207,24.9376,906,0.9744035303245829,2.0,7.8,
SalamaNation,13006,Beer Bar,60.167384,24.935229,871,0.996468058968059,,7.8,"We are SalamaNation, a bar that focuses on craft beer. We have 20 taps and good selection of cans & bottles. We will have also your favourite beer cocktails and of course wines."
Bardot,13027,Bistro,60.168216,24.94765,201,0.9817260442260443,,7.7,
Ristorante Vaelsa,13025,Wine Bar,60.168402,24.953971,192,0.984304280356912,2.0,7.7,"Taverna Vaelsa, Helsinki - Mangia bene, vivi meglio! Syö hyvin, niin voit paremmin!. Sydän Italiassa, koti HelsingissäVaelsan keittiö yhdistää lähiruokaa ja klassisia italialaisia herkkuja modernilla otteella. Mangia bene, vivi meglio! Syö hyvin, niin voit paremmin, on Paolan motto..."
Boon Nam - Restaurant,13072,Asian Restaurant,60.1669,24.940899,562,0.9869067632225527,2.0,7.7,
Ravintola Lasipalatsi,13032,"Cafe, Coffee, and Tea House",60.170032,24.936409,854,0.9894688348635717,,7.7,
Woolshed Bar & Kitchen,13003,Bar,60.173562,24.939111,940,0.9968802534592008,2.0,7.6,"Bar, Huge sunny terrace, Australian steaks, Premium Burgers, Craft beers, Craft ciders, Wine, Sparkling, Authentic unique experience, Live music, Open till late"
Cafe Aalto,10000,Arts and Entertainment,60.167966,24.943665,408,0.9973409414198888,1.0,7.6,
Leijuva Lahna,13006,Beer Bar,60.166817,24.934565,911,0.9882726626147679,3.0,7.5,"Leijuva Lahna on klassinen, mutta samalla kepeä olutravintola. Ravintolassa on 74 asiakaspaikkaa, 18 henkilön kabinetti sekä kesäterassi. Lahnan tiskillä on vaikuttava 19 olut- ja siiderihanan rivistö. Olutvalikoima on painottunut belgialaisiin tuotteisiin."
Bastard Burgers,13031,Burger Joint,60.169272,24.945236,374,0.9963144963144963,1.0,7.4,
Bryggeri Helsinki,13006,Beer Bar,60.168104,24.951737,78,0.9885151299624984,3.0,7.4,
Bierhaus München,13006,Beer Bar,60.173562,24.939111,941,0.9958053148842623,,7.3,
The Cock,13003,Bar,60.165521,24.949913,233,0.9903659640501746,3.0,7.3,"Eatery, rotisserie ja baari. Hyvää ruokaa ja juomaa aamusta pitkälle yöhön. Rotisseriessa paistuu The Cockin kananpoika. Menussa on aina sesongin kasvisruokia, tuoreita ostereita ja hyvä pihvi. Baarista cocktaileja, käsityöläisoluita ja talon omia limonadeja. Alkuviinejä saat alakerrasta."
Sky Wheel Helsinki,10001,Amusement Park,60.166793,24.959315,466,0.9935584507952929,,7.3,Finland's biggest Ferris Wheel!
Eerikin Pippuri,13145,Fast Food Restaurant,60.166621,24.933111,993,0.9941969481443166,2.0,7.3,Kebab
Café Ekberg,13034,Café,60.164759,24.937748,793,0.99589421957843,3.0,7.2,"Taitavat leipurimme, kondiittorimme ja kokkimme ovat hemmotelleet asiakkaitamme kotimaisilla ja kansainvälisillä herkuilla jo yli puolitoista vuosisataa. Aito ja lämminhenkinen asiakaspalvelu, laadukkaat raaka-aineet sekä ammattiylpeys ovat aina olleet perusarvojamme."
Puutarharavintola Viola,13034,Café,60.175917,24.946519,967,0.9822109789215052,1.0,7.2,
Kiinalainen Ravintola Family,13099,Chinese Restaurant,60.17425,24.950919,750,0.9819927583085478,1.0,7.2,
Version,13068,American Restaurant,60.164962,24.951044,282,0.9898082891503944,2.0,7.1,
The Riff,13003,Bar,60.164177,24.943535,567,0.9904144575197207,2.0,7.1,"Cold beer, fresh and professional cocktails, specialty coffees; a rock n' roll bar with no limits!"
Ravintola Bröd,13336,Scandinavian Restaurant,60.163889,24.936436,899,0.9840133195396353,2.0,7.0,
Johan & Nyström OY,13034,Café,60.168948,24.960192,116,0.9867370360791413,3.0,9.1,
Pompier ESPA,13148,French Restaurant,60.166947,24.949194,522,0.9934048881417302,3.0,9.0,
La Torrefazione,13034,Café,60.168764,24.943823,806,0.9890808871072029,2.0,8.8,
Majakkalaiva Relandersgrund,13003,Bar,60.169397,24.958969,115,0.9775717703349283,,8.8,
St. George Bakery,13002,Bakery,60.167066,24.941035,971,0.990075003232898,1.0,8.7,
Ravintola Olo,13311,Molecular Gastronomy Restaurant,60.168252,24.954943,191,0.9911176128281391,3.0,8.7,Olo is a modern Nordic gourmet cuisine restaurant at the heart of Helsinki.
Papu Cafe,13034,Café,60.173107,24.956149,537,0.9549980602612181,1.0,8.6,Hienostunut kahvielämys vastapaahdetusta kahvista suoraan mukiin. Suomalainen kahvila pienellä vivahteella vietnamilaisuutta.
Allas Sea Pool,13065,Restaurant,60.167131,24.958001,142,0.9989897193844562,,8.6,"Allas Sea Pool brings pools, saunas, restaurant, wellness and culture services for the travellers and citizens of Helsinki by the sea in the heart of Finland's capital. Terrace is open now, pools and saunas open in August."
Juova Hanahuone,13006,Beer Bar,60.171119,24.947052,696,0.998868485710591,,8.6,
Ravintola Pastis,13148,French Restaurant,60.164127,24.947772,755,0.9820493340230182,2.0,8.6,Autenttinen maalaisranskalainen keittiö ja tunnelma sekä läsnäoleva ja yksilöllinen palvelu tekevät Kaartin kaupunginosassa sijaitsevasta Pastiksesta unohtumattoman kokemuksen. Pieni pala Pariisia Helsingin kiinnostavimmalla ravintolakadulla.
Salutorget,13336,Scandinavian Restaurant,60.168006,24.951856,364,0.9924915944652787,3.0,8.6,Ravintola Salutorget on skandinaavinen bistro Brofeltin talossa Sarvikuonon korttelissa Helsingin sydämessä.
Pizzeria Via Tribunali,13064,Pizzeria,60.168472,24.951741,368,0.9889030777188672,2.0,8.5,
Gaijin,13263,Japanese Restaurant,60.165979,24.942132,938,0.9872947109789215,3.0,8.4,"Upealla paikalla Bulevardin ja Yrjönkadun kulmassa sijaitsevassa ravintolassamme modernit maut yhdistyvät rohkeasti Japanin, Korean ja Pohjois-Kiinan perinteisiin aromeihin."
Ravintola Story,13065,Restaurant,60.166226,24.95278,395,0.9948273632484159,,8.4,"Cafe-restaurant Story is the gem of the Old Market Hall in Helsinki. It offers straightforward market hall food, enjoying hte ingredients found at the market hall and the market square."
The Wintergarden Bar,13013,Hotel Bar,60.1669,24.940899,981,0.989153627311522,3.0,8.4,
Ravintola Kolme Kruunua,13336,Scandinavian Restaurant,60.174381,24.958888,665,0.9854681236260183,2.0,8.4,
Robert's Coffee Jugend,13034,Café,60.168094,24.950734,425,0.9927825552825553,1.0,8.4,
Shelter,13139,Eastern European Restaurant,60.169033,24.959863,107,0.9689722617354196,,8.4,"Moderni eurooppalainen ravintola Helsingissä. Shelter tuo yhteen hyvän ruoan ja juoman ystävät Katajanokan rannassa sijaitsevan makasiinirakennuksen suojiin. Ravintolassamme uskomme käsityöhön, aitoon asiakaspalveluun ja yhdessä tekemiseen. Loose lips sink ships!..."
Ravintola Sipuli,13065,Restaurant,60.169001,24.961031,160,0.9710898099055993,,8.3,Vuodesta 2002 Ravintola Nokka on tarjoillut korkealaatuista ruokaa kotimaisia raaka-aineita vaalien.
Ravintola Kappeli,13034,Café,60.167332,24.950306,462,0.9982623173412647,2.0,8.2,"Esplanadin helmi – tarinaa jo vuodesta 1867. Kappelin vetovoimalla on pitkät perinteet. Espan puiston kauneus, lasiverannan avaruus, rakennuksen arvokas olemus ja moderni keittiö ovat valmiina tämän päivän asiakkaille. Kappelin salissa on tunnelmaa pariskunnille ja puitteet suuremmille seurueille."
Fazer Café,10000,Arts and Entertainment,60.168645,24.947804,589,0.9979147808095177,3.0,8.1,"Karl Fazer Café on modernin klassinen kahvila, jossa voit kokea makuelämyksellisen aamiaisen, lounaan tai kahvihetken. Karl Fazer Café on Kluuvikadulla, Helsingin sydämessä on ollut jo vuodesta 1891. Se on enemmän kuin kahvila; se on myös pyörryttävän ihana herkkukauppa..."
Eat Poke HKI,13193,Poke Restaurant,60.169558,24.944774,764,0.9855166170955645,,8.1,"The newest trend to raw fish, celebrating Hawaii's much-loved raw fish dish, poke. Good source of protein, tasty way to up your omega-3 intake, flavorful and colorful add-ins, delicious house sauce."
Bier-Bier,13006,Beer Bar,60.165645,24.944344,835,0.9941080434501487,,8.1,Beer bar with great atmosphere in the heart of Helsinki.
Black Door,13006,Beer Bar,60.164177,24.943535,946,0.995546683046683,2.0,8.0,"Tervetuloa englantilaisen pubikulttuurin helmeen. Meiltä löydät aina lämmintä pubitunnelmaa, sekä maittavia oluita. Life is too short to drink bad beer."
Ravintola NJK,13065,Restaurant,60.161257,24.964016,852,0.9458408767619294,,8.0,
Pub Ludvig,13018,Pub,60.165988,24.94562,755,0.9925158412000518,1.0,7.9,
Kaisla,13006,Beer Bar,60.172154,24.946808,762,0.9982865640760378,2.0,7.9,"Kaisaniemen metroaseman kupeessa Vilhonkadulla sijaitsevassa Kaislaan voit astua sisään joko Vilhonkadun tai Vuorikadun puolelta. Tulijalle aukeaa olutmaailma koko rikkaudessaan. Silmiin osuu Suomen uljain hanarivistö, josta täytetään tuopit 30:llä eurooppalaisella aatelioluella."
Dylan Marmoripiha,13065,Restaurant,60.16846,24.943176,841,0.994900103452735,,7.8,"Dylan Marmoripiha tarjoilee lounasta ja brunssia taattuun Dylanin tyyliin aivan Helsingin sydämessä, Keskuskadulla Alvar Aallon suunnittelemassa Rautatalossa. Tila on pyritty sisustamaan entistä tunnelmaa kunnioittaen, jotta ruokailu ravintolassamme saa arvoisensa puitteet."
Bardot,13027,Bistro,60.168216,24.94765,594,0.9817260442260443,,7.7,
Ristorante Vaelsa,13025,Wine Bar,60.168402,24.953971,244,0.984304280356912,2.0,7.7,"Taverna Vaelsa, Helsinki - Mangia bene, vivi meglio! Syö hyvin, niin voit paremmin!. Sydän Italiassa, koti HelsingissäVaelsan keittiö yhdistää lähiruokaa ja klassisia italialaisia herkkuja modernilla otteella. Mangia bene, vivi meglio! Syö hyvin, niin voit paremmin, on Paolan motto..."
Boon Nam - Restaurant,13072,Asian Restaurant,60.1669,24.940899,981,0.9869067632225527,2.0,7.7,
Cafe Aalto,10000,Arts and Entertainment,60.167966,24.943665,815,0.9973409414198888,1.0,7.6,
Friends & Brgrs,13031,Burger Joint,60.169558,24.944774,764,0.9903497995603259,2.0,7.6,Serving great burgers since early 2014.
Burger King,13145,Fast Food Restaurant,60.169211,24.946777,648,0.9885312944523471,1.0,7.5,"Herkullinen ruoka on aina etusijalla. BURGER KING on vuonna 1954 perustettu, nyt maailman toiseksi suurin hampurilaisketju. Ravintolamme ovat tunnettuja korkealaatuisesta, maukkaasta ja edullisesta ruoasta."
Ravintola Savotta,13336,Scandinavian Restaurant,60.168892,24.952584,326,0.9941807836544678,2.0,7.5,
Bastard Burgers,13031,Burger Joint,60.169272,24.945236,734,0.9963144963144963,1.0,7.4,
Bryggeri Helsinki,13006,Beer Bar,60.168104,24.951737,369,0.9885151299624984,3.0,7.4,
Hub Helsinki,11021,Business Center,60.17259,24.945375,857,0.9909721324195009,3.0,7.3,"Open 24 hours a day, Plaza H.U.B. is the perfect spot to savor your morning coffee, an afternoon snack or a late night cocktail. This lobby restaurant serves wine, beer, juice and coffee in addition to light snacks and fresh-baked pastries."
The Cock,13003,Bar,60.165521,24.949913,573,0.9903659640501746,3.0,7.3,"Eatery, rotisserie ja baari. Hyvää ruokaa ja juomaa aamusta pitkälle yöhön. Rotisseriessa paistuu The Cockin kananpoika. Menussa on aina sesongin kasvisruokia, tuoreita ostereita ja hyvä pihvi. Baarista cocktaileja, käsityöläisoluita ja talon omia limonadeja. Alkuviinejä saat alakerrasta."
Sky Wheel Helsinki,10001,Amusement Park,60.166793,24.959315,185,0.9935584507952929,,7.3,Finland's biggest Ferris Wheel!
Kiinalainen Ravintola Family,13099,Chinese Restaurant,60.17425,24.950919,770,0.9819927583085478,1.0,7.2,
Version,13068,American Restaurant,60.164962,24.951044,557,0.9898082891503944,2.0,7.1,
The Riff,13003,Bar,60.164177,24.943535,958,0.9904144575197207,2.0,7.1,"Cold beer, fresh and professional cocktails, specialty coffees; a rock n' roll bar with no limits!"
Wallis,13015,Karaoke Bar,60.16901,24.960342,126,0.972027350316824,2.0,6.9,
Robert's Coffee Citykäytävä,13034,Café,60.16914,24.941446,940,0.997599573257468,2.0,6.9,
Cafe Ateneum Oy,13310,Modern European Restaurant,60.170089,24.944016,816,0.990236648131385,,6.9,Ateneum Bistro serves classic Finnish bistro dishes with a modern twist.
The Old Irish Pub,13010,Dive Bar,60.167879,24.940609,985,0.9970418983576879,,6.8,
Café Engel,13034,Café,60.168924,24.951416,390,0.9939383163067373,2.0,6.8,
Kotipizza Kruununhaka,13032,"Cafe, Coffee, and Tea House",60.170753,24.956303,286,0.9812896030001294,1.0,6.7,
Hesburger,13145,Fast Food Restaurant,60.167258,24.941591,937,0.9916106297685245,1.0,6.6,
Johan & Nyström OY,13034,Café,60.168948,24.960192,854,0.9867370360791413,3.0,9.1,
Majakkalaiva Relandersgrund,13003,Bar,60.169397,24.958969,928,0.9775717703349283,,8.8,
Allas Sea Pool,13065,Restaurant,60.167131,24.958001,971,0.9989897193844562,,8.6,"Allas Sea Pool brings pools, saunas, restaurant, wellness and culture services for the travellers and citizens of Helsinki by the sea in the heart of Finland's capital. Terrace is open now, pools and saunas open in August."
Shelter,13139,Eastern European Restaurant,60.169033,24.959863,873,0.9689722617354196,,8.4,"Moderni eurooppalainen ravintola Helsingissä. Shelter tuo yhteen hyvän ruoan ja juoman ystävät Katajanokan rannassa sijaitsevan makasiinirakennuksen suojiin. Ravintolassamme uskomme käsityöhön, aitoon asiakaspalveluun ja yhdessä tekemiseen. Loose lips sink ships!..."
Ravintola Everest Katajanokka,13194,Himalayan Restaurant,60.167711,24.966438,501,0.9692874692874693,2.0,8.3,"Nepalilainen ravintola Helsingissä. Nepalilaisen ravintolamme omistaja Mohan Aryal ja muu henkilökuntamme toivottaa Teidät sydämellisesti tervetulleeksi: Namaste!Ravintolamme sijaitsee Katajanokassa, joka tunnetaan pääasiassa hienosta jugend-arkkitehtuurista..."
Ravintola Sipuli,13065,Restaurant,60.169001,24.961031,809,0.9710898099055993,,8.3,Vuodesta 2002 Ravintola Nokka on tarjoillut korkealaatuista ruokaa kotimaisia raaka-aineita vaalien.
Tervasaaren koira-aitaus,16033,Dog Park,60.173582,24.96878,732,0.9417270140954351,,8.1,
Ravintola NJK,13065,Restaurant,60.161257,24.964016,973,0.9458408767619294,,8.0,
Ravintola Wellamo,13336,Scandinavian Restaurant,60.168321,24.968632,382,0.9643088064140696,2.0,7.9,"Wellamo - hyvän ruoan ja tunnelman tyyssija Katajanokalla. Wellamo on tunnelmallinen, 45-paikkainen ravintola Helsingin Katajanokalla. Pitkän historian aikana meidät on opittu tuntemaan maineikkaana ruokaravintolana ja loistavana yksityistilaisuuksien pitopaikkana..."
Locanda Scappi,13236,Italian Restaurant,60.166736,24.963447,678,0.9790184921763869,2.0,7.5,
Holiday Bar,13003,Bar,60.168948,24.960192,854,0.9515146126988232,2.0,7.4,
Sky Wheel Helsinki,10001,Amusement Park,60.166793,24.959315,903,0.9935584507952929,,7.3,Finland's biggest Ferris Wheel!
Wallis,13015,Karaoke Bar,60.16901,24.960342,846,0.972027350316824,2.0,6.9,
Ravintola Sipuli,13025,Wine Bar,60.168997,24.960133,858,0.9716959782749256,,6.9,
Ravintola Sipuli,13354,Theme Restaurant,60.168948,24.960192,854,0.9887495150653045,,6.7,
Robert's Coffee Katajannokka,13034,Café,60.16374,24.968446,604,0.6139596534333377,1.0,6.5,
Katajanokan Kasino,13065,Restaurant,60.169257,24.965123,593,0.9810713823871718,,6.4,
Sköne,13016,Lounge,60.168997,24.960133,858,0.9607526186473555,2.0,6.4,"Katajanokan uniikki, tyylikäs olohuone. Laadukkaita juomia joka lähtöön!"
Ravintola Savu,13336,Scandinavian Restaurant,60.173631,24.968721,738,0.9327314754946334,2.0,5.9,
Ravintola Pukki,13065,Restaurant,60.17474,24.983969,892,0.9690369196948144,,5.0,
Jailyard Terrace,13065,Restaurant,60.166882,24.96914,369,0.9273971938445623,,4.9,
Holvi,13065,Restaurant,60.168029,24.972373,173,0.9557497090391828,,,
Louhimo 4 Helsinki - Tampere,19042,Bus Station,60.164808,24.970419,443,0.7245328462433726,,,
Laivastopuiston koira-aitaus,16033,Dog Park,60.168681,24.966838,486,0.4800772662614768,,,
Valfreyia Club,13336,Scandinavian Restaurant,60.165039,24.968221,512,0.8854584249321091,2.0,,
Wanha Satama,13065,Restaurant,60.165758,24.96712,520,0.9932189965084702,,,"Wanhasta Satamasta on moneksi ja se kaikki mahtuu saman katon alle. Meillä tila mukautuu tarpeesi mukaan. Tapahtumatalo, jossa onnistuu konferenssit, yritystilaisuudet, kokoukset, häät, illalliset, yksityistilaisuudet, messut, näyttelyt, hyvinvointitapahtumat, jne."
Mediterranée Kebab Pizzeria,13288,Kebab Restaurant,60.165214,24.967668,525,0.3279613345402819,,,
Via Tribunali,13064,Pizzeria,60.166158,24.965957,561,0.9766019009440062,1.0,,
Fly Fusion Cafe,13034,Café,60.168098,24.965065,577,0.9701199405146773,2.0,,
Oishi 18 Katajanokka,13276,Sushi Restaurant,60.166486,24.965331,583,0.9713726884779517,2.0,,
Ravintola Makasiini,13336,Scandinavian Restaurant,60.165913,24.964561,643,0.340472649683176,2.0,,
Beaky Basterd & Co,13009,Cocktail Bar,60.166922,24.963899,650,0.9781051984999354,3.0,,
Pinto Ristorante,13236,Italian Restaurant,60.167634,24.962693,708,0.709540281908703,2.0,,
Katajanokan puiston koira-aitaus,16033,Dog Park,60.167094,24.962448,727,0.14274052760894868,,,
Promestari,13021,Speakeasy,60.168998,24.961825,765,0.4247623819992241,3.0,,
Cafe Kobben,13034,Café,60.161876,24.982337,768,0.29437299721953786,1.0,,
Crazy Wine,13025,Wine Bar,60.168988,24.960821,820,0.4102385878701668,2.0,,
The Old Man & The Si,13018,Pub,60.171837,24.961871,871,0.9307432432432432,1.0,,
Crazywine,13025,Wine Bar,60.168958,24.959503,892,0.4284559679296521,2.0,,
Lapin Kulta Solar Kitchen Kalasatama,13065,Restaurant,60.176505,24.974371,958,0.6859967024440708,,,
Allas Wine & Dine,13065,Restaurant,60.166825,24.958147,962,0.9770868356394672,,,
Miss Sushi Helsinki,13276,Sushi Restaurant,60.171223,24.958779,995,0.9803763093236777,2.0,,
Malee Thai Tmi,13065,Restaurant,60.167209,24.974385,98,,,,
Royal Ravintolat Oy,13065,Restaurant,60.168977,24.959818,875,,,,
Central Library Oodi (Keskustakirjasto Oodi),12080,Library,60.173705,24.938034,925,0.9997575326522695,,9.3,
Johan & Nyström OY,13034,Café,60.168948,24.960192,442,0.9867370360791413,3.0,9.1,
Pompier ESPA,13148,French Restaurant,60.166947,24.949194,272,0.9934048881417302,3.0,9.0,
La Torrefazione,13034,Café,60.168764,24.943823,464,0.9890808871072029,2.0,8.8,
St. George Bakery,13002,Bakery,60.167066,24.941035,657,0.990075003232898,1.0,8.7,
Ravintola Olo,13311,Molecular Gastronomy Restaurant,60.168252,24.954943,178,0.9911176128281391,3.0,8.7,Olo is a modern Nordic gourmet cuisine restaurant at the heart of Helsinki.
Papu Cafe,13034,Café,60.173107,24.956149,495,0.9549980602612181,1.0,8.6,Hienostunut kahvielämys vastapaahdetusta kahvista suoraan mukiin. Suomalainen kahvila pienellä vivahteella vietnamilaisuutta.
Allas Sea Pool,13065,Restaurant,60.167131,24.958001,388,0.9989897193844562,,8.6,"Allas Sea Pool brings pools, saunas, restaurant, wellness and culture services for the travellers and citizens of Helsinki by the sea in the heart of Finland's capital. Terrace is open now, pools and saunas open in August."
Juova Hanahuone,13006,Beer Bar,60.171119,24.947052,362,0.998868485710591,,8.6,
Ravintola Pastis,13148,French Restaurant,60.164127,24.947772,604,0.9820493340230182,2.0,8.6,Autenttinen maalaisranskalainen keittiö ja tunnelma sekä läsnäoleva ja yksilöllinen palvelu tekevät Kaartin kaupunginosassa sijaitsevasta Pastiksesta unohtumattoman kokemuksen. Pieni pala Pariisia Helsingin kiinnostavimmalla ravintolakadulla.
Salutorget,13336,Scandinavian Restaurant,60.168006,24.951856,123,0.9924915944652787,3.0,8.6,Ravintola Salutorget on skandinaavinen bistro Brofeltin talossa Sarvikuonon korttelissa Helsingin sydämessä.
Olutravintola Pikkulintu,13006,Beer Bar,60.165956,24.936742,923,0.9952314754946334,,8.5,
Pizzeria Via Tribunali,13064,Pizzeria,60.168472,24.951741,74,0.9889030777188672,2.0,8.5,
Ravintola Story,13065,Restaurant,60.166226,24.95278,322,0.9948273632484159,,8.4,"Cafe-restaurant Story is the gem of the Old Market Hall in Helsinki. It offers straightforward market hall food, enjoying hte ingredients found at the market hall and the market square."
The Wintergarden Bar,13013,Hotel Bar,60.1669,24.940899,670,0.989153627311522,3.0,8.4,
La Torrefazione,13034,Café,60.170754,24.936207,902,0.9975187508082245,1.0,8.4,
Ravintola Kolme Kruunua,13336,Scandinavian Restaurant,60.174381,24.958888,693,0.9854681236260183,2.0,8.4,
Robert's Coffee Jugend,13034,Café,60.168094,24.950734,138,0.9927825552825553,1.0,8.4,
Shelter,13139,Eastern European Restaurant,60.169033,24.959863,423,0.9689722617354196,,8.4,"Moderni eurooppalainen ravintola Helsingissä. Shelter tuo yhteen hyvän ruoan ja juoman ystävät Katajanokan rannassa sijaitsevan makasiinirakennuksen suojiin. Ravintolassamme uskomme käsityöhön, aitoon asiakaspalveluun ja yhdessä tekemiseen. Loose lips sink ships!..."
Ravintola Sipuli,13065,Restaurant,60.169001,24.961031,488,0.9710898099055993,,8.3,Vuodesta 2002 Ravintola Nokka on tarjoillut korkealaatuista ruokaa kotimaisia raaka-aineita vaalien.
Ravintola Kappeli,13034,Café,60.167332,24.950306,222,0.9982623173412647,2.0,8.2,"Esplanadin helmi – tarinaa jo vuodesta 1867. Kappelin vetovoimalla on pitkät perinteet. Espan puiston kauneus, lasiverannan avaruus, rakennuksen arvokas olemus ja moderni keittiö ovat valmiina tämän päivän asiakkaille. Kappelin salissa on tunnelmaa pariskunnille ja puitteet suuremmille seurueille."
Fazer Café,10000,Arts and Entertainment,60.168645,24.947804,251,0.9979147808095177,3.0,8.1,"Karl Fazer Café on modernin klassinen kahvila, jossa voit kokea makuelämyksellisen aamiaisen, lounaan tai kahvihetken. Karl Fazer Café on Kluuvikadulla, Helsingin sydämessä on ollut jo vuodesta 1891. Se on enemmän kuin kahvila; se on myös pyörryttävän ihana herkkukauppa..."
Bier-Bier,13006,Beer Bar,60.165645,24.944344,579,0.9941080434501487,,8.1,Beer bar with great atmosphere in the heart of Helsinki.
Black Door,13006,Beer Bar,60.164177,24.943535,727,0.995546683046683,2.0,8.0,"Tervetuloa englantilaisen pubikulttuurin helmeen. Meiltä löydät aina lämmintä pubitunnelmaa, sekä maittavia oluita. Life is too short to drink bad beer."
Ravintola BRO,13013,Hotel Bar,60.17717,24.951429,897,0.9889839001681107,3.0,8.0,"Ravintola BRO on silta luonnon, sesonginmukaisten raaka-aineiden ja vieraidemme välillä. Kaiken keskiössä on maku, joka on meille kaikki kaikessa. Astu sisään ja löydä oma makusi – lämpimästi tervetuloa."
The Plaza - Wine & Craft Beer,13025,Wine Bar,60.1691,24.934947,953,0.9981976593818699,2.0,7.9,
Pub Peräkammari,13006,Beer Bar,60.167731,24.937404,831,0.9889919824130351,,7.9,
Kaisla,13006,Beer Bar,60.172154,24.946808,444,0.9982865640760378,2.0,7.9,"Kaisaniemen metroaseman kupeessa Vilhonkadulla sijaitsevassa Kaislaan voit astua sisään joko Vilhonkadun tai Vuorikadun puolelta. Tulijalle aukeaa olutmaailma koko rikkaudessaan. Silmiin osuu Suomen uljain hanarivistö, josta täytetään tuopit 30:llä eurooppalaisella aatelioluella."
Ateljee Bar,13013,Hotel Bar,60.167947,24.939173,731,0.9915217250743567,3.0,7.8,"Climb the hotel's spiral staircase to Ateljee Bar at the top of the city (70 m high). It is hard to say what the major attraction is: is it the iced Mojitos, the works of young artists or the magnificent views over Helsinki?"
Junk y Vegan,13377,Vegan and Vegetarian Restaurant,60.172207,24.9376,877,0.9744035303245829,2.0,7.8,
SalamaNation,13006,Beer Bar,60.167384,24.935229,957,0.996468058968059,,7.8,"We are SalamaNation, a bar that focuses on craft beer. We have 20 taps and good selection of cans & bottles. We will have also your favourite beer cocktails and of course wines."
Bardot,13027,Bistro,60.168216,24.94765,270,0.9817260442260443,,7.7,
Ristorante Vaelsa,13025,Wine Bar,60.168402,24.953971,124,0.984304280356912,2.0,7.7,"Taverna Vaelsa, Helsinki - Mangia bene, vivi meglio! Syö hyvin, niin voit paremmin!. Sydän Italiassa, koti HelsingissäVaelsan keittiö yhdistää lähiruokaa ja klassisia italialaisia herkkuja modernilla otteella. Mangia bene, vivi meglio! Syö hyvin, niin voit paremmin, on Paolan motto..."
Boon Nam - Restaurant,13072,Asian Restaurant,60.1669,24.940899,670,0.9869067632225527,2.0,7.7,
Ravintola Lasipalatsi,13032,"Cafe, Coffee, and Tea House",60.170032,24.936409,878,0.9894688348635717,,7.7,
Woolshed Bar & Kitchen,13003,Bar,60.173562,24.939111,877,0.9968802534592008,2.0,7.6,"Bar, Huge sunny terrace, Australian steaks, Premium Burgers, Craft beers, Craft ciders, Wine, Sparkling, Authentic unique experience, Live music, Open till late"
Cafe Aalto,10000,Arts and Entertainment,60.167966,24.943665,488,0.9973409414198888,1.0,7.6,
Bastard Burgers,13031,Burger Joint,60.169272,24.945236,385,0.9963144963144963,1.0,7.4,
Bryggeri Helsinki,13006,Beer Bar,60.168104,24.951737,113,0.9885151299624984,3.0,7.4,
Bierhaus München,13006,Beer Bar,60.173562,24.939111,877,0.9958053148842623,,7.3,
The Cock,13003,Bar,60.165521,24.949913,423,0.9903659640501746,3.0,7.3,"Eatery, rotisserie ja baari. Hyvää ruokaa ja juomaa aamusta pitkälle yöhön. Rotisseriessa paistuu The Cockin kananpoika. Menussa on aina sesongin kasvisruokia, tuoreita ostereita ja hyvä pihvi. Baarista cocktaileja, käsityöläisoluita ja talon omia limonadeja. Alkuviinejä saat alakerrasta."
Sky Wheel Helsinki,10001,Amusement Park,60.166793,24.959315,469,0.9935584507952929,,7.3,Finland's biggest Ferris Wheel!
Café Ekberg,13034,Café,60.164759,24.937748,933,0.99589421957843,3.0,7.2,"Taitavat leipurimme, kondiittorimme ja kokkimme ovat hemmotelleet asiakkaitamme kotimaisilla ja kansainvälisillä herkuilla jo yli puolitoista vuosisataa. Aito ja lämminhenkinen asiakaspalvelu, laadukkaat raaka-aineet sekä ammattiylpeys ovat aina olleet perusarvojamme."
Puutarharavintola Viola,13034,Café,60.175917,24.946519,820,0.9822109789215052,1.0,7.2,
Kiinalainen Ravintola Family,13099,Chinese Restaurant,60.17425,24.950919,576,0.9819927583085478,1.0,7.2,
Version,13068,American Restaurant,60.164962,24.951044,464,0.9898082891503944,2.0,7.1,
The Riff,13003,Bar,60.164177,24.943535,741,0.9904144575197207,2.0,7.1,"Cold beer, fresh and professional cocktails, specialty coffees; a rock n' roll bar with no limits!"
Sky Express,13064,Pizzeria,60.16828,24.935268,945,0.988967735678262,1.0,7.0,
Robert's Coffee Citykäytävä,13034,Café,60.16914,24.941446,594,0.997599573257468,2.0,6.9,
Cafe Ateneum Oy,13310,Modern European Restaurant,60.170089,24.944016,465,0.990236648131385,,6.9,Ateneum Bistro serves classic Finnish bistro dishes with a modern twist.
Johan & Nyström OY,13034,Café,60.168948,24.960192,348,0.9867370360791413,3.0,9.1,
Pompier ESPA,13148,French Restaurant,60.166947,24.949194,562,0.9934048881417302,3.0,9.0,
La Torrefazione,13034,Café,60.168764,24.943823,700,0.9890808871072029,2.0,8.8,
Majakkalaiva Relandersgrund,13003,Bar,60.169397,24.958969,265,0.9775717703349283,,8.8,
St. George Bakery,13002,Bakery,60.167066,24.941035,921,0.990075003232898,1.0,8.7,
Ravintola Olo,13311,Molecular Gastronomy Restaurant,60.168252,24.954943,318,0.9911176128281391,3.0,8.7,Olo is a modern Nordic gourmet cuisine restaurant at the heart of Helsinki.
Papu Cafe,13034,Café,60.173107,24.956149,225,0.9549980602612181,1.0,8.6,Hienostunut kahvielämys vastapaahdetusta kahvista suoraan mukiin. Suomalainen kahvila pienellä vivahteella vietnamilaisuutta.
Allas Sea Pool,13065,Restaurant,60.167131,24.958001,460,0.9989897193844562,,8.6,"Allas Sea Pool brings pools, saunas, restaurant, wellness and culture services for the travellers and citizens of Helsinki by the sea in the heart of Finland's capital. Terrace is open now, pools and saunas open in August."
Juova Hanahuone,13006,Beer Bar,60.171119,24.947052,472,0.998868485710591,,8.6,
Ravintola Pastis,13148,French Restaurant,60.164127,24.947772,887,0.9820493340230182,2.0,8.6,Autenttinen maalaisranskalainen keittiö ja tunnelma sekä läsnäoleva ja yksilöllinen palvelu tekevät Kaartin kaupunginosassa sijaitsevasta Pastiksesta unohtumattoman kokemuksen. Pieni pala Pariisia Helsingin kiinnostavimmalla ravintolakadulla.
Salutorget,13336,Scandinavian Restaurant,60.168006,24.951856,401,0.9924915944652787,3.0,8.6,Ravintola Salutorget on skandinaavinen bistro Brofeltin talossa Sarvikuonon korttelissa Helsingin sydämessä.
Pizzeria Via Tribunali,13064,Pizzeria,60.168472,24.951741,361,0.9889030777188672,2.0,8.5,
Gaijin,13263,Japanese Restaurant,60.165979,24.942132,937,0.9872947109789215,3.0,8.4,"Upealla paikalla Bulevardin ja Yrjönkadun kulmassa sijaitsevassa ravintolassamme modernit maut yhdistyvät rohkeasti Japanin, Korean ja Pohjois-Kiinan perinteisiin aromeihin."
Ravintola Story,13065,Restaurant,60.166226,24.95278,565,0.9948273632484159,,8.4,"Cafe-restaurant Story is the gem of the Old Market Hall in Helsinki. It offers straightforward market hall food, enjoying hte ingredients found at the market hall and the market square."
The Wintergarden Bar,13013,Hotel Bar,60.1669,24.940899,937,0.989153627311522,3.0,8.4,
Ravintola Kolme Kruunua,13336,Scandinavian Restaurant,60.174381,24.958888,407,0.9854681236260183,2.0,8.4,
Robert's Coffee Jugend,13034,Café,60.168094,24.950734,428,0.9927825552825553,1.0,8.4,
Shelter,13139,Eastern European Restaurant,60.169033,24.959863,329,0.9689722617354196,,8.4,"Moderni eurooppalainen ravintola Helsingissä. Shelter tuo yhteen hyvän ruoan ja juoman ystävät Katajanokan rannassa sijaitsevan makasiinirakennuksen suojiin. Ravintolassamme uskomme käsityöhön, aitoon asiakaspalveluun ja yhdessä tekemiseen. Loose lips sink ships!..."
Ravintola Sipuli,13065,Restaurant,60.169001,24.961031,380,0.9710898099055993,,8.3,Vuodesta 2002 Ravintola Nokka on tarjoillut korkealaatuista ruokaa kotimaisia raaka-aineita vaalien.
Ravintola Kappeli,13034,Café,60.167332,24.950306,510,0.9982623173412647,2.0,8.2,"Esplanadin helmi – tarinaa jo vuodesta 1867. Kappelin vetovoimalla on pitkät perinteet. Espan puiston kauneus, lasiverannan avaruus, rakennuksen arvokas olemus ja moderni keittiö ovat valmiina tämän päivän asiakkaille. Kappelin salissa on tunnelmaa pariskunnille ja puitteet suuremmille seurueille."
Fazer Café,10000,Arts and Entertainment,60.168645,24.947804,513,0.9979147808095177,3.0,8.1,"Karl Fazer Café on modernin klassinen kahvila, jossa voit kokea makuelämyksellisen aamiaisen, lounaan tai kahvihetken. Karl Fazer Café on Kluuvikadulla, Helsingin sydämessä on ollut jo vuodesta 1891. Se on enemmän kuin kahvila; se on myös pyörryttävän ihana herkkukauppa..."
Bier-Bier,13006,Beer Bar,60.165645,24.944344,868,0.9941080434501487,,8.1,Beer bar with great atmosphere in the heart of Helsinki.
Ravintola BRO,13013,Hotel Bar,60.17717,24.951429,712,0.9889839001681107,3.0,8.0,"Ravintola BRO on silta luonnon, sesonginmukaisten raaka-aineiden ja vieraidemme välillä. Kaiken keskiössä on maku, joka on meille kaikki kaikessa. Astu sisään ja löydä oma makusi – lämpimästi tervetuloa."
Kahvisiskot,10000,Arts and Entertainment,60.178615,24.951025,873,0.9948516099831889,1.0,8.0,
Kaisla,13006,Beer Bar,60.172154,24.946808,505,0.9982865640760378,2.0,7.9,"Kaisaniemen metroaseman kupeessa Vilhonkadulla sijaitsevassa Kaislaan voit astua sisään joko Vilhonkadun tai Vuorikadun puolelta. Tulijalle aukeaa olutmaailma koko rikkaudessaan. Silmiin osuu Suomen uljain hanarivistö, josta täytetään tuopit 30:llä eurooppalaisella aatelioluella."
Ateljee Bar,13013,Hotel Bar,60.167947,24.939173,973,0.9915217250743567,3.0,7.8,"Climb the hotel's spiral staircase to Ateljee Bar at the top of the city (70 m high). It is hard to say what the major attraction is: is it the iced Mojitos, the works of young artists or the magnificent views over Helsinki?"
Bardot,13027,Bistro,60.168216,24.94765,543,0.9817260442260443,,7.7,
Ristorante Vaelsa,13025,Wine Bar,60.168402,24.953971,313,0.984304280356912,2.0,7.7,"Taverna Vaelsa, Helsinki - Mangia bene, vivi meglio! Syö hyvin, niin voit paremmin!. Sydän Italiassa, koti HelsingissäVaelsan keittiö yhdistää lähiruokaa ja klassisia italialaisia herkkuja modernilla otteella. Mangia bene, vivi meglio! Syö hyvin, niin voit paremmin, on Paolan motto..."
Boon Nam - Restaurant,13072,Asian Restaurant,60.1669,24.940899,937,0.9869067632225527,2.0,7.7,
Woolshed Bar & Kitchen,13003,Bar,60.173562,24.939111,952,0.9968802534592008,2.0,7.6,"Bar, Huge sunny terrace, Australian steaks, Premium Burgers, Craft beers, Craft ciders, Wine, Sparkling, Authentic unique experience, Live music, Open till late"
Cafe Aalto,10000,Arts and Entertainment,60.167966,24.943665,746,0.9973409414198888,1.0,7.6,
Bastard Burgers,13031,Burger Joint,60.169272,24.945236,607,0.9963144963144963,1.0,7.4,
Bryggeri Helsinki,13006,Beer Bar,60.168104,24.951737,395,0.9885151299624984,3.0,7.4,
Bierhaus München,13006,Beer Bar,60.173562,24.939111,951,0.9958053148842623,,7.3,
The Cock,13003,Bar,60.165521,24.949913,701,0.9903659640501746,3.0,7.3,"Eatery, rotisserie ja baari. Hyvää ruokaa ja juomaa aamusta pitkälle yöhön. Rotisseriessa paistuu The Cockin kananpoika. Menussa on aina sesongin kasvisruokia, tuoreita ostereita ja hyvä pihvi. Baarista cocktaileja, käsityöläisoluita ja talon omia limonadeja. Alkuviinejä saat alakerrasta."
Sky Wheel Helsinki,10001,Amusement Park,60.166793,24.959315,520,0.9935584507952929,,7.3,Finland's biggest Ferris Wheel!
Puutarharavintola Viola,13034,Café,60.175917,24.946519,733,0.9822109789215052,1.0,7.2,
Kiinalainen Ravintola Family,13099,Chinese Restaurant,60.17425,24.950919,435,0.9819927583085478,1.0,7.2,
Version,13068,American Restaurant,60.164962,24.951044,727,0.9898082891503944,2.0,7.1,
Robert's Coffee Citykäytävä,13034,Café,60.16914,24.941446,812,0.997599573257468,2.0,6.9,
Cafe Ateneum Oy,13310,Modern European Restaurant,60.170089,24.944016,650,0.990236648131385,,6.9,Ateneum Bistro serves classic Finnish bistro dishes with a modern twist.
The Old Irish Pub,13010,Dive Bar,60.167879,24.940609,902,0.9970418983576879,,6.8,
Café Engel,13034,Café,60.168924,24.951416,334,0.9939383163067373,2.0,6.8,
Kotipizza Kruununhaka,13032,"Cafe, Coffee, and Tea House",60.170753,24.956303,54,0.9812896030001294,1.0,6.7,
Hesburger,13145,Fast Food Restaurant,60.167258,24.941591,884,0.9916106297685245,1.0,6.6,
Gastropub Stone's,13031,Burger Joint,60.169095,24.942404,762,0.9947950342687185,2.0,6.4,"Stone´s tuo elämästä nautiskelevien ulottuville parhaista lähitoimittajien raaka-aineista valmistettuja burgereita sekä kattavan valikoiman erikoisoluita vaativampaankin makuun. Ruoassa ja juomassa painotetaan paikallisuutta ja luomua, sillä asiakkaille halutaan tarjota aitoja makuelämyksiä."
